[
  {
    "name": "Лес Салинес",
    "code": "AAE",
    "coordinates": {
      "lon": 7.811857,
      "lat": 36.821392
    }
  },
  {
    "name": "Ольборг",
    "code": "AAL",
    "coordinates": {
      "lon": 9.872241,
      "lat": 57.08655
    }
  },
  {
    "name": "Аль-Айн",
    "code": "AAN",
    "coordinates": {
      "lon": 55.616627,
      "lat": 24.260231
    }
  },
  {
    "name": "Анапа",
    "code": "AAQ",
    "coordinates": {
      "lon": 37.316666,
      "lat": 44.9
    }
  },
  {
    "name": "Тирструп",
    "code": "AAR",
    "coordinates": {
      "lon": 10.626351,
      "lat": 56.30823
    }
  },
  {
    "name": "Алтай",
    "code": "AAT",
    "coordinates": {
      "lon": 88.08444,
      "lat": 47.750362
    }
  },
  {
    "name": "Араша",
    "code": "AAX",
    "coordinates": {
      "lon": -46.92917,
      "lat": -19.568056
    }
  },
  {
    "name": "Абакан",
    "code": "ABA",
    "coordinates": {
      "lon": 91.5,
      "lat": 53.716667
    }
  },
  {
    "name": "Абингдон",
    "code": "ABB",
    "coordinates": {
      "lon": -1.283333,
      "lat": 51.666668
    }
  },
  {
    "name": "Абадан",
    "code": "ABD",
    "coordinates": {
      "lon": 48.226597,
      "lat": 30.363905
    }
  },
  {
    "name": "Лихай Валли",
    "code": "ABE",
    "coordinates": {
      "lon": -75.434364,
      "lat": 40.651573
    }
  },
  {
    "name": "Абилин",
    "code": "ABI",
    "coordinates": {
      "lon": -99.679726,
      "lat": 32.409443
    }
  },
  {
    "name": "Феликс Боини",
    "code": "ABJ",
    "coordinates": {
      "lon": -3.933015,
      "lat": 5.254879
    }
  },
  {
    "name": "Амблер",
    "code": "ABL",
    "coordinates": {
      "lon": -157.84584,
      "lat": 67.0875
    }
  },
  {
    "name": "Бамага",
    "code": "ABM",
    "coordinates": {
      "lon": 142.45033,
      "lat": -10.942619
    }
  },
  {
    "name": "Альбукерке",
    "code": "ABQ",
    "coordinates": {
      "lon": -106.617195,
      "lat": 35.049625
    }
  },
  {
    "name": "Абердин",
    "code": "ABR",
    "coordinates": {
      "lon": -98.42611,
      "lat": 45.4525
    }
  },
  {
    "name": "Эль-Акик",
    "code": "ABT",
    "coordinates": {
      "lon": 41.64002,
      "lat": 20.29401
    }
  },
  {
    "name": "Атамбуа",
    "code": "ABU",
    "coordinates": {
      "lon": 124.88333,
      "lat": -9.133333
    }
  },
  {
    "name": "Абуджа",
    "code": "ABV",
    "coordinates": {
      "lon": 7.270447,
      "lat": 9.004614
    }
  },
  {
    "name": "Олбери",
    "code": "ABX",
    "coordinates": {
      "lon": 146.95453,
      "lat": -36.069626
    }
  },
  {
    "name": "Олбани",
    "code": "ABY",
    "coordinates": {
      "lon": -84.19611,
      "lat": 31.532223
    }
  },
  {
    "name": "Абердин",
    "code": "ABZ",
    "coordinates": {
      "lon": -2.204186,
      "lat": 57.200253
    }
  },
  {
    "name": "Альварес",
    "code": "ACA",
    "coordinates": {
      "lon": -99.75459,
      "lat": 16.762403
    }
  },
  {
    "name": "Котока",
    "code": "ACC",
    "coordinates": {
      "lon": -0.171769,
      "lat": 5.60737
    }
  },
  {
    "name": "Лансароте",
    "code": "ACE",
    "coordinates": {
      "lon": -13.609059,
      "lat": 28.950668
    }
  },
  {
    "name": "Альтенрейн",
    "code": "ACH",
    "coordinates": {
      "lon": 9.566667,
      "lat": 47.483334
    }
  },
  {
    "name": "Блэй",
    "code": "ACI",
    "coordinates": {
      "lon": -2.215369,
      "lat": 49.709347
    }
  },
  {
    "name": "Нантакет",
    "code": "ACK",
    "coordinates": {
      "lon": -70.05972,
      "lat": 41.256668
    }
  },
  {
    "name": "Уэйко",
    "code": "ACT",
    "coordinates": {
      "lon": -97.22321,
      "lat": 31.609133
    }
  },
  {
    "name": "Арката",
    "code": "ACV",
    "coordinates": {
      "lon": -124.106926,
      "lat": 40.970913
    }
  },
  {
    "name": "Синъи",
    "code": "ACX",
    "coordinates": {
      "lon": 104.95944,
      "lat": 25.085556
    }
  },
  {
    "name": "Атлантик-Сити Интернэшинл",
    "code": "ACY",
    "coordinates": {
      "lon": -74.572235,
      "lat": 39.450703
    }
  },
  {
    "name": "Адана",
    "code": "ADA",
    "coordinates": {
      "lon": 35.29736,
      "lat": 36.98503
    }
  },
  {
    "name": "Аднан Мендерес",
    "code": "ADB",
    "coordinates": {
      "lon": 27.147594,
      "lat": 38.294403
    }
  },
  {
    "name": "Боле",
    "code": "ADD",
    "coordinates": {
      "lon": 38.7959,
      "lat": 8.983759
    }
  },
  {
    "name": "Адыяман",
    "code": "ADF",
    "coordinates": {
      "lon": 38.266666,
      "lat": 37.75
    }
  },
  {
    "name": "Аделаида",
    "code": "ADL",
    "coordinates": {
      "lon": 138.53735,
      "lat": -34.938175
    }
  },
  {
    "name": "Кадьяк",
    "code": "ADQ",
    "coordinates": {
      "lon": -152.51297,
      "lat": 57.755276
    }
  },
  {
    "name": "Эдисон",
    "code": "ADS",
    "coordinates": {
      "lon": -97.3,
      "lat": 32.783333
    }
  },
  {
    "name": "Ардабил",
    "code": "ADU",
    "coordinates": {
      "lon": 48.42125,
      "lat": 38.323826
    }
  },
  {
    "name": "Andrews AFB",
    "code": "ADW",
    "coordinates": {
      "lon": -76.86667,
      "lat": 38.816666
    }
  },
  {
    "name": "Сан-Андрес",
    "code": "ADZ",
    "coordinates": {
      "lon": -81.70221,
      "lat": 12.586047
    }
  },
  {
    "name": "Хорхе Ньюбери",
    "code": "AEP",
    "coordinates": {
      "lon": -58.41667,
      "lat": -34.55622
    }
  },
  {
    "name": "Адлер",
    "code": "AER",
    "coordinates": {
      "lon": 39.941105,
      "lat": 43.44884
    }
  },
  {
    "name": "Олесунн",
    "code": "AES",
    "coordinates": {
      "lon": 6.116605,
      "lat": 62.559643
    }
  },
  {
    "name": "Александрия",
    "code": "AEX",
    "coordinates": {
      "lon": -92.53958,
      "lat": 31.321268
    }
  },
  {
    "name": "Акюрейри",
    "code": "AEY",
    "coordinates": {
      "lon": -18.075068,
      "lat": 65.654564
    }
  },
  {
    "name": "Сан-Рафаэль",
    "code": "AFA",
    "coordinates": {
      "lon": -68.40056,
      "lat": -34.58917
    }
  },
  {
    "name": "Альта-Флореста",
    "code": "AFL",
    "coordinates": {
      "lon": -56.104767,
      "lat": -9.872456
    }
  },
  {
    "name": "Форт-Уэрт Альянс",
    "code": "AFW",
    "coordinates": {
      "lon": -97.316666,
      "lat": 32.986668
    }
  },
  {
    "name": "Алмассира",
    "code": "AGA",
    "coordinates": {
      "lon": -9.555895,
      "lat": 30.378326
    }
  },
  {
    "name": "Аугсбург",
    "code": "AGB",
    "coordinates": {
      "lon": 10.931667,
      "lat": 48.425278
    }
  },
  {
    "name": "Питтсбург",
    "code": "AGC",
    "coordinates": {
      "lon": -79.93,
      "lat": 40.35472
    }
  },
  {
    "name": "Ла-Гаренн",
    "code": "AGF",
    "coordinates": {
      "lon": 0.598611,
      "lat": 44.17361
    }
  },
  {
    "name": "Энгельхолм",
    "code": "AGH",
    "coordinates": {
      "lon": 12.8625,
      "lat": 56.293056
    }
  },
  {
    "name": "Малага",
    "code": "AGP",
    "coordinates": {
      "lon": -4.489616,
      "lat": 36.675182
    }
  },
  {
    "name": "Буш-Филд",
    "code": "AGS",
    "coordinates": {
      "lon": -81.973434,
      "lat": 33.373665
    }
  },
  {
    "name": "Алехо Гарсия",
    "code": "AGT",
    "coordinates": {
      "lon": -54.833332,
      "lat": -25.5
    }
  },
  {
    "name": "Агуаскальентес",
    "code": "AGU",
    "coordinates": {
      "lon": -102.31374,
      "lat": 21.701416
    }
  },
  {
    "name": "Агатти",
    "code": "AGX",
    "coordinates": {
      "lon": 72.17987,
      "lat": 10.828967
    }
  },
  {
    "name": "Абха",
    "code": "AHB",
    "coordinates": {
      "lon": 42.657574,
      "lat": 18.23429
    }
  },
  {
    "name": "Фертилия",
    "code": "AHO",
    "coordinates": {
      "lon": 8.295891,
      "lat": 40.630405
    }
  },
  {
    "name": "Эль-Хосейма",
    "code": "AHU",
    "coordinates": {
      "lon": -3.836944,
      "lat": 35.17972
    }
  },
  {
    "name": "Альянс",
    "code": "AIA",
    "coordinates": {
      "lon": -102.80666,
      "lat": 42.051666
    }
  },
  {
    "name": "Айтутаки",
    "code": "AIT",
    "coordinates": {
      "lon": -159.767,
      "lat": -18.829443
    }
  },
  {
    "name": "Кампо-Дель-Оро",
    "code": "AJA",
    "coordinates": {
      "lon": 8.794013,
      "lat": 41.91987
    }
  },
  {
    "name": "Эль-Джауф",
    "code": "AJF",
    "coordinates": {
      "lon": 40.101486,
      "lat": 29.788668
    }
  },
  {
    "name": "Агры",
    "code": "AJI",
    "coordinates": {
      "lon": 43.025,
      "lat": 39.65
    }
  },
  {
    "name": "Аиджал",
    "code": "AJL",
    "coordinates": {
      "lon": 92.62482,
      "lat": 23.838985
    }
  },
  {
    "name": "Арвидсьяур",
    "code": "AJR",
    "coordinates": {
      "lon": 19.285557,
      "lat": 65.59139
    }
  },
  {
    "name": "Аракажу",
    "code": "AJU",
    "coordinates": {
      "lon": -37.072792,
      "lat": -10.987206
    }
  },
  {
    "name": "Асахикава",
    "code": "AKJ",
    "coordinates": {
      "lon": 142.45454,
      "lat": 43.67109
    }
  },
  {
    "name": "Окленд",
    "code": "AKL",
    "coordinates": {
      "lon": 174.78352,
      "lat": -37.004787
    }
  },
  {
    "name": "Кинг Салмон",
    "code": "AKN",
    "coordinates": {
      "lon": -156.66902,
      "lat": 58.68274
    }
  },
  {
    "name": "Аксу",
    "code": "AKU",
    "coordinates": {
      "lon": 80.29262,
      "lat": 41.259983
    }
  },
  {
    "name": "Актобе",
    "code": "AKX",
    "coordinates": {
      "lon": 57.211403,
      "lat": 50.249336
    }
  },
  {
    "name": "Ситуэ",
    "code": "AKY",
    "coordinates": {
      "lon": 92.88028,
      "lat": 20.130278
    }
  },
  {
    "name": "Алматы",
    "code": "ALA",
    "coordinates": {
      "lon": 77.01145,
      "lat": 43.346653
    }
  },
  {
    "name": "Олбани",
    "code": "ALB",
    "coordinates": {
      "lon": -73.809555,
      "lat": 42.745277
    }
  },
  {
    "name": "Аликанте",
    "code": "ALC",
    "coordinates": {
      "lon": -0.557381,
      "lat": 38.287098
    }
  },
  {
    "name": "Алта",
    "code": "ALF",
    "coordinates": {
      "lon": 23.355808,
      "lat": 69.977165
    }
  },
  {
    "name": "Хуари Бумедьен",
    "code": "ALG",
    "coordinates": {
      "lon": 3.21167,
      "lat": 36.70058
    }
  },
  {
    "name": "Олбани",
    "code": "ALH",
    "coordinates": {
      "lon": 117.804,
      "lat": -34.944996
    }
  },
  {
    "name": "Ватерлоо",
    "code": "ALO",
    "coordinates": {
      "lon": -92.39972,
      "lat": 42.55611
    }
  },
  {
    "name": "Аламоса",
    "code": "ALS",
    "coordinates": {
      "lon": -105.86667,
      "lat": 37.43667
    }
  },
  {
    "name": "Уолла Уолла",
    "code": "ALW",
    "coordinates": {
      "lon": -118.291115,
      "lat": 46.094723
    }
  },
  {
    "name": "Alitak SPB",
    "code": "ALZ",
    "coordinates": {
      "lon": -154.24583,
      "lat": 56.895832
    }
  },
  {
    "name": "Амарилло",
    "code": "AMA",
    "coordinates": {
      "lon": -101.70513,
      "lat": 35.218273
    }
  },
  {
    "name": "Ахмадабад",
    "code": "AMD",
    "coordinates": {
      "lon": 72.62417,
      "lat": 23.06639
    }
  },
  {
    "name": "Арба-Мынч",
    "code": "AMH",
    "coordinates": {
      "lon": 37.576942,
      "lat": 6.036111
    }
  },
  {
    "name": "Квин Алия",
    "code": "AMM",
    "coordinates": {
      "lon": 35.98932,
      "lat": 31.722534
    }
  },
  {
    "name": "Амбон",
    "code": "AMQ",
    "coordinates": {
      "lon": 128.08888,
      "lat": -3.704996
    }
  },
  {
    "name": "Схипхол",
    "code": "AMS",
    "coordinates": {
      "lon": 4.763385,
      "lat": 52.30907
    }
  },
  {
    "name": "Анкоридж",
    "code": "ANC",
    "coordinates": {
      "lon": -149.99638,
      "lat": 61.174442
    }
  },
  {
    "name": "Анже",
    "code": "ANE",
    "coordinates": {
      "lon": -0.55,
      "lat": 47.466667
    }
  },
  {
    "name": "Керро Морено",
    "code": "ANF",
    "coordinates": {
      "lon": -70.44079,
      "lat": -23.449
    }
  },
  {
    "name": "Аниак",
    "code": "ANI",
    "coordinates": {
      "lon": -159.53697,
      "lat": 61.574398
    }
  },
  {
    "name": "Дерне",
    "code": "ANR",
    "coordinates": {
      "lon": 4.450672,
      "lat": 51.18916
    }
  },
  {
    "name": "Ви-Си Бэрд",
    "code": "ANU",
    "coordinates": {
      "lon": -61.76389,
      "lat": 17.108334
    }
  },
  {
    "name": "Анвик",
    "code": "ANV",
    "coordinates": {
      "lon": -160.18889,
      "lat": 62.647778
    }
  },
  {
    "name": "Анденес",
    "code": "ANX",
    "coordinates": {
      "lon": 16.133326,
      "lat": 69.30492
    }
  },
  {
    "name": "Аньшань",
    "code": "AOG",
    "coordinates": {
      "lon": 123.03333,
      "lat": 41.166668
    }
  },
  {
    "name": "Фалконара",
    "code": "AOI",
    "coordinates": {
      "lon": 13.355723,
      "lat": 43.60691
    }
  },
  {
    "name": "Аомори",
    "code": "AOJ",
    "coordinates": {
      "lon": 140.68922,
      "lat": 40.738758
    }
  },
  {
    "name": "Карпатос",
    "code": "AOK",
    "coordinates": {
      "lon": 27.146729,
      "lat": 35.420685
    }
  },
  {
    "name": "Алтуна",
    "code": "AOO",
    "coordinates": {
      "lon": -78.32,
      "lat": 40.297222
    }
  },
  {
    "name": "Алор-Сетар",
    "code": "AOR",
    "coordinates": {
      "lon": 100.405266,
      "lat": 6.201171
    }
  },
  {
    "name": "Арапахо",
    "code": "APA",
    "coordinates": {
      "lon": -104.98333,
      "lat": 39.733334
    }
  },
  {
    "name": "Нейплс",
    "code": "APF",
    "coordinates": {
      "lon": -81.775276,
      "lat": 26.152779
    }
  },
  {
    "name": "Нампула",
    "code": "APL",
    "coordinates": {
      "lon": 39.287224,
      "lat": -15.101667
    }
  },
  {
    "name": "Алпена",
    "code": "APN",
    "coordinates": {
      "lon": -83.55583,
      "lat": 45.08167
    }
  },
  {
    "name": "Апартадо",
    "code": "APO",
    "coordinates": {
      "lon": -76.71766,
      "lat": 7.817678
    }
  },
  {
    "name": "Фалеоло",
    "code": "APW",
    "coordinates": {
      "lon": -171.99724,
      "lat": -13.832793
    }
  },
  {
    "name": "Аньцин",
    "code": "AQG",
    "coordinates": {
      "lon": 117.0509,
      "lat": 30.5825
    }
  },
  {
    "name": "Эль-Кайсума",
    "code": "AQI",
    "coordinates": {
      "lon": 46.121315,
      "lat": 28.334408
    }
  },
  {
    "name": "Кинг Хуссейн",
    "code": "AQJ",
    "coordinates": {
      "lon": 35.02151,
      "lat": 29.610073
    }
  },
  {
    "name": "Родригес-Байон",
    "code": "AQP",
    "coordinates": {
      "lon": -71.56799,
      "lat": -16.344812
    }
  },
  {
    "name": "Алор",
    "code": "ARD",
    "coordinates": {
      "lon": 124.53333,
      "lat": -8.683333
    }
  },
  {
    "name": "Талаги",
    "code": "ARH",
    "coordinates": {
      "lon": 40.711903,
      "lat": 64.594795
    }
  },
  {
    "name": "Чакаллута",
    "code": "ARI",
    "coordinates": {
      "lon": -70.335556,
      "lat": -18.349766
    }
  },
  {
    "name": "Аруша",
    "code": "ARK",
    "coordinates": {
      "lon": 36.683334,
      "lat": -3.366667
    }
  },
  {
    "name": "Армидейл",
    "code": "ARM",
    "coordinates": {
      "lon": 151.61493,
      "lat": -30.532297
    }
  },
  {
    "name": "Арланда",
    "code": "ARN",
    "coordinates": {
      "lon": 17.930365,
      "lat": 59.64982
    }
  },
  {
    "name": "Уотертаун",
    "code": "ART",
    "coordinates": {
      "lon": -76.021385,
      "lat": 43.990833
    }
  },
  {
    "name": "Аракатуба",
    "code": "Aname",
    "coordinates": {
      "lon": -50.42611,
      "lat": -21.143612
    }
  },
  {
    "name": "Ашхабад",
    "code": "ASB",
    "coordinates": {
      "lon": 58.366978,
      "lat": 37.984184
    }
  },
  {
    "name": "Аспен",
    "code": "ASE",
    "coordinates": {
      "lon": -106.864685,
      "lat": 39.219685
    }
  },
  {
    "name": "Астрахань",
    "code": "ASF",
    "coordinates": {
      "lon": 47.999977,
      "lat": 46.2877
    }
  },
  {
    "name": "Амамиозима",
    "code": "ASJ",
    "coordinates": {
      "lon": 129.70793,
      "lat": 28.431522
    }
  },
  {
    "name": "Асмэра",
    "code": "ASM",
    "coordinates": {
      "lon": 38.91028,
      "lat": 15.291111
    }
  },
  {
    "name": "Асоса",
    "code": "ASO",
    "coordinates": {
      "lon": 34.536667,
      "lat": 10.047222
    }
  },
  {
    "name": "Алис-Спрингс",
    "code": "ASP",
    "coordinates": {
      "lon": 133.90338,
      "lat": -23.80139
    }
  },
  {
    "name": "Кайсери",
    "code": "ASR",
    "coordinates": {
      "lon": 35.490707,
      "lat": 38.7742
    }
  },
  {
    "name": "Сильвио Петтиросси",
    "code": "ASU",
    "coordinates": {
      "lon": -57.513794,
      "lat": -25.241795
    }
  },
  {
    "name": "Асуан",
    "code": "ASW",
    "coordinates": {
      "lon": 32.824818,
      "lat": 23.968021
    }
  },
  {
    "name": "Элефтериос Веницелос",
    "code": "ATH",
    "coordinates": {
      "lon": 23.946486,
      "lat": 37.93635
    }
  },
  {
    "name": "Аткасук",
    "code": "ATK",
    "coordinates": {
      "lon": -157.33333,
      "lat": 70.5
    }
  },
  {
    "name": "Хартсфилд-Джэксон",
    "code": "ATL",
    "coordinates": {
      "lon": -84.44403,
      "lat": 33.640068
    }
  },
  {
    "name": "Алтамира",
    "code": "ATM",
    "coordinates": {
      "lon": -52.216667,
      "lat": -3.2
    }
  },
  {
    "name": "Раджа Санси",
    "code": "ATQ",
    "coordinates": {
      "lon": 74.8073,
      "lat": 31.706741
    }
  },
  {
    "name": "Атмаутлуак",
    "code": "ATT",
    "coordinates": {
      "lon": -162.2675,
      "lat": 60.866943
    }
  },
  {
    "name": "Аутагейми Каунти",
    "code": "ATW",
    "coordinates": {
      "lon": -88.50994,
      "lat": 44.26011
    }
  },
  {
    "name": "Уотертаун",
    "code": "ATY",
    "coordinates": {
      "lon": -97.15417,
      "lat": 44.90889
    }
  },
  {
    "name": "Асьют",
    "code": "ATZ",
    "coordinates": {
      "lon": 31,
      "lat": 27.033333
    }
  },
  {
    "name": "Рейна Беатрис",
    "code": "AUA",
    "coordinates": {
      "lon": -70.013885,
      "lat": 12.502222
    }
  },
  {
    "name": "Араука",
    "code": "AUC",
    "coordinates": {
      "lon": -70.7425,
      "lat": 7.071667
    }
  },
  {
    "name": "Огаста",
    "code": "AUG",
    "coordinates": {
      "lon": -69.79667,
      "lat": 44.318054
    }
  },
  {
    "name": "Абу-Даби",
    "code": "AUH",
    "coordinates": {
      "lon": 54.645973,
      "lat": 24.426912
    }
  },
  {
    "name": "Алаканук",
    "code": "AUK",
    "coordinates": {
      "lon": -164.61084,
      "lat": 62.689167
    }
  },
  {
    "name": "Атуона",
    "code": "AUQ",
    "coordinates": {
      "lon": -139.00978,
      "lat": -9.769324
    }
  },
  {
    "name": "Орийак",
    "code": "AUR",
    "coordinates": {
      "lon": 2.418056,
      "lat": 44.8975
    }
  },
  {
    "name": "Бергстром",
    "code": "AUS",
    "coordinates": {
      "lon": -97.66706,
      "lat": 30.202545
    }
  },
  {
    "name": "Арагуаина",
    "code": "AUX",
    "coordinates": {
      "lon": -48.2,
      "lat": -7.2
    }
  },
  {
    "name": "Аньшунь",
    "code": "AVA",
    "coordinates": {
      "lon": 105.87278,
      "lat": 26.257221
    }
  },
  {
    "name": "Авиано",
    "code": "AVB",
    "coordinates": {
      "lon": 12.6,
      "lat": 46.033333
    }
  },
  {
    "name": "Ашвилл",
    "code": "AVL",
    "coordinates": {
      "lon": -82.537315,
      "lat": 35.43508
    }
  },
  {
    "name": "Авиньон",
    "code": "AVN",
    "coordinates": {
      "lon": 4.9,
      "lat": 43.9
    }
  },
  {
    "name": "Скрант-Уилкс",
    "code": "AVP",
    "coordinates": {
      "lon": -75.730644,
      "lat": 41.336697
    }
  },
  {
    "name": "Авалон",
    "code": "AVV",
    "coordinates": {
      "lon": 144.47308,
      "lat": -38.02637
    }
  },
  {
    "name": "Ахваз",
    "code": "AWZ",
    "coordinates": {
      "lon": 48.74668,
      "lat": 31.34292
    }
  },
  {
    "name": "Волблейк",
    "code": "AXA",
    "coordinates": {
      "lon": -63.066666,
      "lat": 18.216667
    }
  },
  {
    "name": "Демокритос",
    "code": "AXD",
    "coordinates": {
      "lon": 25.944893,
      "lat": 40.856785
    }
  },
  {
    "name": "Эль Эден",
    "code": "AXM",
    "coordinates": {
      "lon": -75.76804,
      "lat": 4.452869
    }
  },
  {
    "name": "Спринг Пойнт",
    "code": "AXP",
    "coordinates": {
      "lon": -73.96667,
      "lat": 22.45
    }
  },
  {
    "name": "Арутуа",
    "code": "AXR",
    "coordinates": {
      "lon": -146.75,
      "lat": -15.25
    }
  },
  {
    "name": "Акита",
    "code": "AXT",
    "coordinates": {
      "lon": 140.22015,
      "lat": 39.61177
    }
  },
  {
    "name": "Аксум",
    "code": "AXU",
    "coordinates": {
      "lon": 38.716667,
      "lat": 14.120833
    }
  },
  {
    "name": "Янамилла",
    "code": "AYP",
    "coordinates": {
      "lon": -74.24722,
      "lat": -13.197222
    }
  },
  {
    "name": "Коннеллан",
    "code": "AYQ",
    "coordinates": {
      "lon": 130.97658,
      "lat": -25.190878
    }
  },
  {
    "name": "Анталья",
    "code": "AYT",
    "coordinates": {
      "lon": 30.80135,
      "lat": 36.89928
    }
  },
  {
    "name": "Финикс-Меса Гейтуэй",
    "code": "AZA",
    "coordinates": {
      "lon": -111.655556,
      "lat": 33.307777
    }
  },
  {
    "name": "Йезд",
    "code": "AZD",
    "coordinates": {
      "lon": 54.283264,
      "lat": 31.903603
    }
  },
  {
    "name": "Андижан",
    "code": "AZN",
    "coordinates": {
      "lon": 72.3,
      "lat": 40.733334
    }
  },
  {
    "name": "Каламазу",
    "code": "AZO",
    "coordinates": {
      "lon": -85.55656,
      "lat": 42.239964
    }
  },
  {
    "name": "Адрар",
    "code": "AZR",
    "coordinates": {
      "lon": -0.283333,
      "lat": 27.883333
    }
  },
  {
    "name": "Бахрейн",
    "code": "BAH",
    "coordinates": {
      "lon": 50.62605,
      "lat": 26.26918
    }
  },
  {
    "name": "Батман",
    "code": "BAL",
    "coordinates": {
      "lon": 41.083332,
      "lat": 37.916668
    }
  },
  {
    "name": "Кортиссоз",
    "code": "BAQ",
    "coordinates": {
      "lon": -74.77618,
      "lat": 10.886398
    }
  },
  {
    "name": "Бари (жд вокзал)",
    "code": "BAU",
    "coordinates": {
      "lon": -49.0525,
      "lat": -22.343056
    }
  },
  {
    "name": "Баотоу",
    "code": "BAV",
    "coordinates": {
      "lon": 110.0009,
      "lat": 40.563328
    }
  },
  {
    "name": "Барнаул",
    "code": "BAX",
    "coordinates": {
      "lon": 83.547646,
      "lat": 53.361088
    }
  },
  {
    "name": "Тениенте-Видал",
    "code": "BBA",
    "coordinates": {
      "lon": -71.695,
      "lat": -45.916668
    }
  },
  {
    "name": "Бхубанешвар",
    "code": "BBI",
    "coordinates": {
      "lon": 85.81738,
      "lat": 20.252853
    }
  },
  {
    "name": "Касане",
    "code": "BBK",
    "coordinates": {
      "lon": 25.15,
      "lat": -17.816668
    }
  },
  {
    "name": "Барио",
    "code": "BBN",
    "coordinates": {
      "lon": 115.46667,
      "lat": 3.683333
    }
  },
  {
    "name": "Баколод",
    "code": "BCD",
    "coordinates": {
      "lon": 122.93359,
      "lat": 10.644815
    }
  },
  {
    "name": "Баркалдин",
    "code": "BCI",
    "coordinates": {
      "lon": 145.30194,
      "lat": -23.559168
    }
  },
  {
    "name": "Бакэу",
    "code": "BCM",
    "coordinates": {
      "lon": 26.881945,
      "lat": 46.59861
    }
  },
  {
    "name": "Эль-Прат",
    "code": "BCN",
    "coordinates": {
      "lon": 2.07593,
      "lat": 41.30303
    }
  },
  {
    "name": "Бермуды",
    "code": "BDA",
    "coordinates": {
      "lon": -64.70115,
      "lat": 32.35994
    }
  },
  {
    "name": "Бандаберг",
    "code": "BDB",
    "coordinates": {
      "lon": 152.32187,
      "lat": -24.898708
    }
  },
  {
    "name": "Сьямсудин-Нур",
    "code": "BDJ",
    "coordinates": {
      "lon": 114.75425,
      "lat": -3.43804
    }
  },
  {
    "name": "Бредли",
    "code": "BDL",
    "coordinates": {
      "lon": -72.6847,
      "lat": 41.92953
    }
  },
  {
    "name": "Хусейн Састранегара",
    "code": "BDO",
    "coordinates": {
      "lon": 107.58178,
      "lat": -6.904648
    }
  },
  {
    "name": "Бхадрапур",
    "code": "BDP",
    "coordinates": {
      "lon": 88.083336,
      "lat": 26.533333
    }
  },
  {
    "name": "Вадодара",
    "code": "BDQ",
    "coordinates": {
      "lon": 73.2157,
      "lat": 22.329077
    }
  },
  {
    "name": "Папола-Касал",
    "code": "BDS",
    "coordinates": {
      "lon": 17.939053,
      "lat": 40.657993
    }
  },
  {
    "name": "Бардуфосс",
    "code": "BDU",
    "coordinates": {
      "lon": 18.54,
      "lat": 69.056114
    }
  },
  {
    "name": "Бенбекьюла",
    "code": "BEB",
    "coordinates": {
      "lon": -7.376028,
      "lat": 57.473415
    }
  },
  {
    "name": "Белград",
    "code": "BEG",
    "coordinates": {
      "lon": 20.306944,
      "lat": 44.819443
    }
  },
  {
    "name": "Беро",
    "code": "BEJ",
    "coordinates": {
      "lon": 117.7,
      "lat": 2.166667
    }
  },
  {
    "name": "Вал-Де-Канс",
    "code": "BEL",
    "coordinates": {
      "lon": -48.480003,
      "lat": -1.389865
    }
  },
  {
    "name": "Гипава",
    "code": "BES",
    "coordinates": {
      "lon": -4.415827,
      "lat": 48.445374
    }
  },
  {
    "name": "Бетел",
    "code": "BET",
    "coordinates": {
      "lon": -161.83139,
      "lat": 60.784443
    }
  },
  {
    "name": "Бейра",
    "code": "BEW",
    "coordinates": {
      "lon": 34.90192,
      "lat": -19.798805
    }
  },
  {
    "name": "Бейрут",
    "code": "BEY",
    "coordinates": {
      "lon": 35.49308,
      "lat": 33.826073
    }
  },
  {
    "name": "Брэдфорд",
    "code": "BFD",
    "coordinates": {
      "lon": -78.63944,
      "lat": 41.802223
    }
  },
  {
    "name": "Скотсблафф",
    "code": "BFF",
    "coordinates": {
      "lon": -103.60111,
      "lat": 41.87528
    }
  },
  {
    "name": "Боинг-Филд",
    "code": "BFI",
    "coordinates": {
      "lon": -122.3037,
      "lat": 47.5371
    }
  },
  {
    "name": "Мидоус-Филд",
    "code": "BFL",
    "coordinates": {
      "lon": -119.04533,
      "lat": 35.429626
    }
  },
  {
    "name": "Мобайл",
    "code": "BFM",
    "coordinates": {
      "lon": -88.23333,
      "lat": 30.683332
    }
  },
  {
    "name": "Блумфонтейн",
    "code": "BFN",
    "coordinates": {
      "lon": 26.297516,
      "lat": -29.095854
    }
  },
  {
    "name": "Белфаст",
    "code": "BFS",
    "coordinates": {
      "lon": -6.217616,
      "lat": 54.662395
    }
  },
  {
    "name": "Бурирам",
    "code": "BFV",
    "coordinates": {
      "lon": 103.25528,
      "lat": 15.226944
    }
  },
  {
    "name": "Палонегро",
    "code": "BGA",
    "coordinates": {
      "lon": -73.1814,
      "lat": 7.128045
    }
  },
  {
    "name": "Браганса",
    "code": "BGC",
    "coordinates": {
      "lon": -6.75,
      "lat": 41.816666
    }
  },
  {
    "name": "Банги",
    "code": "BGF",
    "coordinates": {
      "lon": 18.520279,
      "lat": 4.396111
    }
  },
  {
    "name": "Бингёль",
    "code": "BGG",
    "coordinates": {
      "lon": -4.25,
      "lat": 6.7
    }
  },
  {
    "name": "Грантлей Адамс",
    "code": "BGI",
    "coordinates": {
      "lon": -59.487835,
      "lat": 13.080732
    }
  },
  {
    "name": "Бингемтон",
    "code": "BGM",
    "coordinates": {
      "lon": -75.98294,
      "lat": 42.208534
    }
  },
  {
    "name": "Флесланд",
    "code": "BGO",
    "coordinates": {
      "lon": 5.228169,
      "lat": 60.289062
    }
  },
  {
    "name": "Бангор",
    "code": "BGR",
    "coordinates": {
      "lon": -68.82102,
      "lat": 44.812298
    }
  },
  {
    "name": "Эль-Мутана",
    "code": "BGW",
    "coordinates": {
      "lon": 44.225,
      "lat": 33.255554
    }
  },
  {
    "name": "Орио Аль Серио",
    "code": "BGY",
    "coordinates": {
      "lon": 9.698713,
      "lat": 45.665314
    }
  },
  {
    "name": "Бар Харбор",
    "code": "BHB",
    "coordinates": {
      "lon": -68.361664,
      "lat": 44.44889
    }
  },
  {
    "name": "Белфаст (городской)",
    "code": "BHD",
    "coordinates": {
      "lon": -5.870215,
      "lat": 54.61452
    }
  },
  {
    "name": "Бленем",
    "code": "BHE",
    "coordinates": {
      "lon": 173.86765,
      "lat": -41.513588
    }
  },
  {
    "name": "Калъат-Биша",
    "code": "BHH",
    "coordinates": {
      "lon": 42.618484,
      "lat": 19.994509
    }
  },
  {
    "name": "Команданте",
    "code": "BHI",
    "coordinates": {
      "lon": -62.150555,
      "lat": -38.730556
    }
  },
  {
    "name": "Рудра-Мата",
    "code": "BHJ",
    "coordinates": {
      "lon": 69.670555,
      "lat": 23.2875
    }
  },
  {
    "name": "Бухара",
    "code": "BHK",
    "coordinates": {
      "lon": 64.47479,
      "lat": 39.76037
    }
  },
  {
    "name": "Бирмингем",
    "code": "BHM",
    "coordinates": {
      "lon": -86.75219,
      "lat": 33.560833
    }
  },
  {
    "name": "Бхопал",
    "code": "BHO",
    "coordinates": {
      "lon": 77.34177,
      "lat": 23.284761
    }
  },
  {
    "name": "Брокен Хилл",
    "code": "BHQ",
    "coordinates": {
      "lon": 141.46857,
      "lat": -31.998983
    }
  },
  {
    "name": "Реглан",
    "code": "BHS",
    "coordinates": {
      "lon": 149.65518,
      "lat": -33.41387
    }
  },
  {
    "name": "Бхавнагар",
    "code": "BHU",
    "coordinates": {
      "lon": 72.18444,
      "lat": 21.755
    }
  },
  {
    "name": "Бахавалпур",
    "code": "BHV",
    "coordinates": {
      "lon": 71.683334,
      "lat": 29.4
    }
  },
  {
    "name": "Бирмингем",
    "code": "BHX",
    "coordinates": {
      "lon": -1.733256,
      "lat": 52.45252
    }
  },
  {
    "name": "Бэйхай",
    "code": "BHY",
    "coordinates": {
      "lon": 109.28785,
      "lat": 21.540333
    }
  },
  {
    "name": "Бастия",
    "code": "BIA",
    "coordinates": {
      "lon": 9.480124,
      "lat": 42.547615
    }
  },
  {
    "name": "Biggs AAF",
    "code": "BIF",
    "coordinates": {
      "lon": -106.48333,
      "lat": 31.75
    }
  },
  {
    "name": "Мокмер",
    "code": "BIK",
    "coordinates": {
      "lon": 136.10582,
      "lat": -1.191919
    }
  },
  {
    "name": "Биллингс",
    "code": "BIL",
    "coordinates": {
      "lon": -108.53723,
      "lat": 45.803417
    }
  },
  {
    "name": "Бимини",
    "code": "BIM",
    "coordinates": {
      "lon": -79.28333,
      "lat": 25.7
    }
  },
  {
    "name": "Бильбао",
    "code": "BIO",
    "coordinates": {
      "lon": -2.905808,
      "lat": 43.305534
    }
  },
  {
    "name": "Биарриц",
    "code": "BIQ",
    "coordinates": {
      "lon": -1.531242,
      "lat": 43.472416
    }
  },
  {
    "name": "Биратнагар",
    "code": "BIR",
    "coordinates": {
      "lon": 87.28333,
      "lat": 26.434723
    }
  },
  {
    "name": "Бисмарк",
    "code": "BIS",
    "coordinates": {
      "lon": -100.75821,
      "lat": 46.77448
    }
  },
  {
    "name": "Беджая",
    "code": "BJA",
    "coordinates": {
      "lon": 5.083333,
      "lat": 36.75
    }
  },
  {
    "name": "Ботсфьорд",
    "code": "BJF",
    "coordinates": {
      "lon": 29.666668,
      "lat": 70.6
    }
  },
  {
    "name": "Бемиджи",
    "code": "BJI",
    "coordinates": {
      "lon": -94.93472,
      "lat": 47.509724
    }
  },
  {
    "name": "Юндум",
    "code": "BJL",
    "coordinates": {
      "lon": -16.6522,
      "lat": 13.34406
    }
  },
  {
    "name": "Бужумбура",
    "code": "BJM",
    "coordinates": {
      "lon": 29.366667,
      "lat": -3.383333
    }
  },
  {
    "name": "Бахар-Дар",
    "code": "BJR",
    "coordinates": {
      "lon": 37.32324,
      "lat": 11.603292
    }
  },
  {
    "name": "Милас",
    "code": "BJV",
    "coordinates": {
      "lon": 27.672781,
      "lat": 37.243954
    }
  },
  {
    "name": "Баджава",
    "code": "BJW",
    "coordinates": {
      "lon": 120.98333,
      "lat": -8.766667
    }
  },
  {
    "name": "Леон",
    "code": "BJX",
    "coordinates": {
      "lon": -101.479,
      "lat": 20.985699
    }
  },
  {
    "name": "Талаверал-Ла-Реал",
    "code": "BJZ",
    "coordinates": {
      "lon": -6.82,
      "lat": 38.891666
    }
  },
  {
    "name": "Бакленд",
    "code": "BKC",
    "coordinates": {
      "lon": -161.12666,
      "lat": 65.97889
    }
  },
  {
    "name": "Кота-Кинабалу",
    "code": "BKI",
    "coordinates": {
      "lon": 116.05075,
      "lat": 5.923961
    }
  },
  {
    "name": "Суварнабхуми",
    "code": "BKK",
    "coordinates": {
      "lon": 100.752045,
      "lat": 13.693062
    }
  },
  {
    "name": "Бурк-Лэйкфронд",
    "code": "BKL",
    "coordinates": {
      "lon": -81.683334,
      "lat": 41.516945
    }
  },
  {
    "name": "Бамако",
    "code": "BKO",
    "coordinates": {
      "lon": -7.947951,
      "lat": 12.540926
    }
  },
  {
    "name": "Блэколл",
    "code": "BKQ",
    "coordinates": {
      "lon": 145.42833,
      "lat": -24.434168
    }
  },
  {
    "name": "Паданджкемилинг",
    "code": "BKS",
    "coordinates": {
      "lon": 102.34349,
      "lat": -3.866159
    }
  },
  {
    "name": "Бекли",
    "code": "BKW",
    "coordinates": {
      "lon": -81.12417,
      "lat": 37.781944
    }
  },
  {
    "name": "Букоба",
    "code": "BKZ",
    "coordinates": {
      "lon": 31.8,
      "lat": -1.3
    }
  },
  {
    "name": "Генерал Ансоатеги",
    "code": "BLA",
    "coordinates": {
      "lon": -64.68589,
      "lat": 10.107936
    }
  },
  {
    "name": "Бальбоа",
    "code": "BLB",
    "coordinates": {
      "lon": -79.5575,
      "lat": 8.973056
    }
  },
  {
    "name": "Дала",
    "code": "BLE",
    "coordinates": {
      "lon": 15.50826,
      "lat": 60.42973
    }
  },
  {
    "name": "Беллингем",
    "code": "BLI",
    "coordinates": {
      "lon": -122.53267,
      "lat": 48.795734
    }
  },
  {
    "name": "Батна",
    "code": "BLJ",
    "coordinates": {
      "lon": 6.183333,
      "lat": 35.566666
    }
  },
  {
    "name": "Биллунн",
    "code": "BLL",
    "coordinates": {
      "lon": 9.147874,
      "lat": 55.747383
    }
  },
  {
    "name": "Гульельмо Маркони",
    "code": "BLQ",
    "coordinates": {
      "lon": 11.293289,
      "lat": 44.529266
    }
  },
  {
    "name": "Индустан",
    "code": "BLR",
    "coordinates": {
      "lon": 77.70556,
      "lat": 13.198889
    }
  },
  {
    "name": "Чилека",
    "code": "BLZ",
    "coordinates": {
      "lon": 34.970833,
      "lat": -15.674722
    }
  },
  {
    "name": "Бромма",
    "code": "BMA",
    "coordinates": {
      "lon": 17.94608,
      "lat": 59.35566
    }
  },
  {
    "name": "Брум",
    "code": "BME",
    "coordinates": {
      "lon": 122.23429,
      "lat": -17.95264
    }
  },
  {
    "name": "Блумингтон-Нормал",
    "code": "BMI",
    "coordinates": {
      "lon": -88.91483,
      "lat": 40.48401
    }
  },
  {
    "name": "Бима",
    "code": "BMU",
    "coordinates": {
      "lon": 118.916664,
      "lat": -8.5
    }
  },
  {
    "name": "Фунгдук",
    "code": "BMV",
    "coordinates": {
      "lon": 108.05,
      "lat": 12.666667
    }
  },
  {
    "name": "Нашвилл",
    "code": "BNA",
    "coordinates": {
      "lon": -86.668945,
      "lat": 36.13174
    }
  },
  {
    "name": "Бендер-Аббас",
    "code": "BND",
    "coordinates": {
      "lon": 56.368385,
      "lat": 27.21059
    }
  },
  {
    "name": "Брисбен",
    "code": "BNE",
    "coordinates": {
      "lon": 153.10905,
      "lat": -27.40303
    }
  },
  {
    "name": "Бенин-Сити",
    "code": "BNI",
    "coordinates": {
      "lon": 5.603863,
      "lat": 6.316943
    }
  },
  {
    "name": "Байрон-Бей",
    "code": "BNK",
    "coordinates": {
      "lon": 153.5564,
      "lat": -28.837606
    }
  },
  {
    "name": "Брённёйсунн",
    "code": "BNN",
    "coordinates": {
      "lon": 12.215772,
      "lat": 65.4617
    }
  },
  {
    "name": "Баня-Лука",
    "code": "BNX",
    "coordinates": {
      "lon": 17.3,
      "lat": 44.933334
    }
  },
  {
    "name": "Моту-Муту",
    "code": "BOB",
    "coordinates": {
      "lon": -151.75447,
      "lat": -16.446207
    }
  },
  {
    "name": "Бордо",
    "code": "BOD",
    "coordinates": {
      "lon": -0.70217,
      "lat": 44.83102
    }
  },
  {
    "name": "Эльдорадо",
    "code": "BOG",
    "coordinates": {
      "lon": -74.143135,
      "lat": 4.698602
    }
  },
  {
    "name": "Борнмут",
    "code": "BOH",
    "coordinates": {
      "lon": -1.832476,
      "lat": 50.77827
    }
  },
  {
    "name": "Говен-Филд",
    "code": "BOI",
    "coordinates": {
      "lon": -116.22193,
      "lat": 43.569263
    }
  },
  {
    "name": "Бургас",
    "code": "BOJ",
    "coordinates": {
      "lon": 27.283333,
      "lat": 42.416668
    }
  },
  {
    "name": "Мумбаи",
    "code": "BOM",
    "coordinates": {
      "lon": 72.87497,
      "lat": 19.095509
    }
  },
  {
    "name": "Фламинго",
    "code": "BON",
    "coordinates": {
      "lon": -68.27687,
      "lat": 12.133403
    }
  },
  {
    "name": "Будё",
    "code": "BOO",
    "coordinates": {
      "lon": 14.367839,
      "lat": 67.27262
    }
  },
  {
    "name": "Бостон Логан",
    "code": "BOS",
    "coordinates": {
      "lon": -71.02018,
      "lat": 42.36646
    }
  },
  {
    "name": "Баган",
    "code": "BPE",
    "coordinates": {
      "lon": 96,
      "lat": 24
    }
  },
  {
    "name": "Сепинган",
    "code": "BPN",
    "coordinates": {
      "lon": 116.90082,
      "lat": -1.260623
    }
  },
  {
    "name": "Порту-Сегуру",
    "code": "BPS",
    "coordinates": {
      "lon": -39.081097,
      "lat": -16.441158
    }
  },
  {
    "name": "Джефферсон",
    "code": "BPT",
    "coordinates": {
      "lon": -94.02,
      "lat": 29.950832
    }
  },
  {
    "name": "Чамдо",
    "code": "BPX",
    "coordinates": {
      "lon": 97.10667,
      "lat": 30.555834
    }
  },
  {
    "name": "Брансуик",
    "code": "BQK",
    "coordinates": {
      "lon": -81.48333,
      "lat": 31.166668
    }
  },
  {
    "name": "Боринкен",
    "code": "BQN",
    "coordinates": {
      "lon": -67.13,
      "lat": 18.495832
    }
  },
  {
    "name": "Благовещенск",
    "code": "BQS",
    "coordinates": {
      "lon": 127.4,
      "lat": 50.416668
    }
  },
  {
    "name": "Брест",
    "code": "BQT",
    "coordinates": {
      "lon": 23.883333,
      "lat": 52.11667
    }
  },
  {
    "name": "Баррейрос",
    "code": "BRA",
    "coordinates": {
      "lon": -45.00833,
      "lat": -12.073056
    }
  },
  {
    "name": "Сан-Карлос-де-Барилоче",
    "code": "BRC",
    "coordinates": {
      "lon": -71.16109,
      "lat": -41.145966
    }
  },
  {
    "name": "Брейнерд",
    "code": "BRD",
    "coordinates": {
      "lon": -94.1375,
      "lat": 46.39722
    }
  },
  {
    "name": "Бремен",
    "code": "BRE",
    "coordinates": {
      "lon": 8.785352,
      "lat": 53.05297
    }
  },
  {
    "name": "Лидс (жд вокзал)",
    "code": "BRF",
    "coordinates": {
      "lon": -1.75,
      "lat": 53.8
    }
  },
  {
    "name": "Бари",
    "code": "BRI",
    "coordinates": {
      "lon": 16.76391,
      "lat": 41.13388
    }
  },
  {
    "name": "Берлингтон",
    "code": "BRL",
    "coordinates": {
      "lon": -91.12334,
      "lat": 40.78611
    }
  },
  {
    "name": "Баркисимето",
    "code": "BRM",
    "coordinates": {
      "lon": -69.35984,
      "lat": 10.046267
    }
  },
  {
    "name": "Бельп",
    "code": "BRN",
    "coordinates": {
      "lon": 7.50356,
      "lat": 46.911728
    }
  },
  {
    "name": "Браунсвилл",
    "code": "BRO",
    "coordinates": {
      "lon": -97.42333,
      "lat": 25.90889
    }
  },
  {
    "name": "Брно",
    "code": "BRQ",
    "coordinates": {
      "lon": 16.7,
      "lat": 49.15
    }
  },
  {
    "name": "Барра",
    "code": "BRR",
    "coordinates": {
      "lon": -7.440278,
      "lat": 57.023335
    }
  },
  {
    "name": "Бристоль",
    "code": "BRS",
    "coordinates": {
      "lon": -2.710659,
      "lat": 51.386757
    }
  },
  {
    "name": "Брюссель",
    "code": "Bname",
    "coordinates": {
      "lon": 4.483602,
      "lat": 50.89717
    }
  },
  {
    "name": "Барроу",
    "code": "BRW",
    "coordinates": {
      "lon": -156.77579,
      "lat": 71.288574
    }
  },
  {
    "name": "Бразилиа",
    "code": "BSB",
    "coordinates": {
      "lon": -47.921486,
      "lat": -15.869807
    }
  },
  {
    "name": "Баошань",
    "code": "BSD",
    "coordinates": {
      "lon": 99.16143,
      "lat": 25.055182
    }
  },
  {
    "name": "Бата",
    "code": "BSG",
    "coordinates": {
      "lon": 9.802222,
      "lat": 1.906667
    }
  },
  {
    "name": "Brighton",
    "code": "BSH",
    "coordinates": {
      "lon": -0.116667,
      "lat": 50.816666
    }
  },
  {
    "name": "Бискра",
    "code": "BSK",
    "coordinates": {
      "lon": 5.738056,
      "lat": 34.79333
    }
  },
  {
    "name": "Мюлуз-Фрайбург",
    "code": "BSL",
    "coordinates": {
      "lon": 7.532604,
      "lat": 47.59961
    }
  },
  {
    "name": "Баско",
    "code": "BSO",
    "coordinates": {
      "lon": 121.977776,
      "lat": 20.453056
    }
  },
  {
    "name": "Басра",
    "code": "BSR",
    "coordinates": {
      "lon": 47.79139,
      "lat": 30.555555
    }
  },
  {
    "name": "Ханг-Надим",
    "code": "BTH",
    "coordinates": {
      "lon": 104.11528,
      "lat": 1.123627
    }
  },
  {
    "name": "Бартер",
    "code": "BTI",
    "coordinates": {
      "lon": -143.57834,
      "lat": 70.13472
    }
  },
  {
    "name": "Бланг-Бинтанг",
    "code": "BTJ",
    "coordinates": {
      "lon": 95.41833,
      "lat": 5.518021
    }
  },
  {
    "name": "Братск",
    "code": "BTK",
    "coordinates": {
      "lon": 101.816666,
      "lat": 56.36667
    }
  },
  {
    "name": "Бьютт",
    "code": "BTM",
    "coordinates": {
      "lon": -112.49389,
      "lat": 45.95111
    }
  },
  {
    "name": "Райан",
    "code": "BTR",
    "coordinates": {
      "lon": -91.156906,
      "lat": 30.532537
    }
  },
  {
    "name": "М. Р. Штефаник",
    "code": "BTS",
    "coordinates": {
      "lon": 17.199799,
      "lat": 48.170017
    }
  },
  {
    "name": "Бинтулу",
    "code": "BTU",
    "coordinates": {
      "lon": 113.04346,
      "lat": 3.171772
    }
  },
  {
    "name": "Берлингтон",
    "code": "BTV",
    "coordinates": {
      "lon": -73.15527,
      "lat": 44.469013
    }
  },
  {
    "name": "Ференц Лист",
    "code": "BUD",
    "coordinates": {
      "lon": 19.261621,
      "lat": 47.433037
    }
  },
  {
    "name": "Буффало",
    "code": "BUF",
    "coordinates": {
      "lon": -78.731804,
      "lat": 42.933826
    }
  },
  {
    "name": "Бхатинда",
    "code": "BUP",
    "coordinates": {
      "lon": 74.96667,
      "lat": 30.166668
    }
  },
  {
    "name": "Булавайо",
    "code": "BUQ",
    "coordinates": {
      "lon": 28.622616,
      "lat": -20.014933
    }
  },
  {
    "name": "Батуми",
    "code": "BUS",
    "coordinates": {
      "lon": 41.600555,
      "lat": 41.610832
    }
  },
  {
    "name": "Баубау",
    "code": "BUW",
    "coordinates": {
      "lon": 122.63333,
      "lat": -5.466667
    }
  },
  {
    "name": "Бушир",
    "code": "BUZ",
    "coordinates": {
      "lon": 50.825424,
      "lat": 28.958284
    }
  },
  {
    "name": "Бовэ-Тиль",
    "code": "BVA",
    "coordinates": {
      "lon": 2.110815,
      "lat": 49.459488
    }
  },
  {
    "name": "Боа-Виста",
    "code": "BVB",
    "coordinates": {
      "lon": -60.666668,
      "lat": 2.833333
    }
  },
  {
    "name": "Рабил",
    "code": "BVC",
    "coordinates": {
      "lon": -22.833332,
      "lat": 16.083332
    }
  },
  {
    "name": "Брив-Валле-де-ла-Дордонь",
    "code": "BVE",
    "coordinates": {
      "lon": 1.533333,
      "lat": 45.166668
    }
  },
  {
    "name": "Берлевог",
    "code": "BVG",
    "coordinates": {
      "lon": 29,
      "lat": 70.86667
    }
  },
  {
    "name": "Вильена",
    "code": "BVH",
    "coordinates": {
      "lon": -60.11667,
      "lat": -12.716667
    }
  },
  {
    "name": "Бхайрава",
    "code": "BWA",
    "coordinates": {
      "lon": 83.42,
      "lat": 27.504168
    }
  },
  {
    "name": "Балтимор",
    "code": "BWI",
    "coordinates": {
      "lon": -76.66894,
      "lat": 39.179527
    }
  },
  {
    "name": "Бруней",
    "code": "BWN",
    "coordinates": {
      "lon": 114.93375,
      "lat": 4.945197
    }
  },
  {
    "name": "Берни Уинуорд",
    "code": "BWT",
    "coordinates": {
      "lon": 145.72507,
      "lat": -40.993145
    }
  },
  {
    "name": "Бутуан",
    "code": "BXU",
    "coordinates": {
      "lon": 125.48123,
      "lat": 8.947999
    }
  },
  {
    "name": "Бониту",
    "code": "BYO",
    "coordinates": {
      "lon": -56.456112,
      "lat": -21.229445
    }
  },
  {
    "name": "Филипа Голдсон",
    "code": "BZE",
    "coordinates": {
      "lon": -88.308334,
      "lat": 17.539167
    }
  },
  {
    "name": "Быдгощ",
    "code": "BZG",
    "coordinates": {
      "lon": 17.978611,
      "lat": 53.09667
    }
  },
  {
    "name": "Брянск",
    "code": "BZK",
    "coordinates": {
      "lon": 34.333332,
      "lat": 53.266666
    }
  },
  {
    "name": "Барисал",
    "code": "BZL",
    "coordinates": {
      "lon": 90.3,
      "lat": 22.8
    }
  },
  {
    "name": "Бозмен",
    "code": "BZN",
    "coordinates": {
      "lon": -111.16033,
      "lat": 45.777687
    }
  },
  {
    "name": "Безье-Виа",
    "code": "BZR",
    "coordinates": {
      "lon": 3.354444,
      "lat": 43.324165
    }
  },
  {
    "name": "Майя-Майя",
    "code": "BZV",
    "coordinates": {
      "lon": 15.251139,
      "lat": -4.258899
    }
  },
  {
    "name": "Бельцы",
    "code": "BZY",
    "coordinates": {
      "lon": 27.933332,
      "lat": 47.75
    }
  },
  {
    "name": "Raf Brize Norton",
    "code": "BZZ",
    "coordinates": {
      "lon": -1.587093,
      "lat": 51.75
    }
  },
  {
    "name": "Кабинда",
    "code": "CAB",
    "coordinates": {
      "lon": 12.2,
      "lat": -5.583333
    }
  },
  {
    "name": "Каскавел",
    "code": "CAC",
    "coordinates": {
      "lon": -53.466667,
      "lat": -24.95
    }
  },
  {
    "name": "Метрополитэн",
    "code": "CAE",
    "coordinates": {
      "lon": -81.12501,
      "lat": 33.946907
    }
  },
  {
    "name": "Элмас",
    "code": "CAG",
    "coordinates": {
      "lon": 9.060673,
      "lat": 39.254333
    }
  },
  {
    "name": "Камау",
    "code": "CAH",
    "coordinates": {
      "lon": 105.17944,
      "lat": 9.175556
    }
  },
  {
    "name": "Каир",
    "code": "CAI",
    "coordinates": {
      "lon": 31.40647,
      "lat": 30.120106
    }
  },
  {
    "name": "Акрон",
    "code": "CAK",
    "coordinates": {
      "lon": -81.43583,
      "lat": 40.914963
    }
  },
  {
    "name": "Мачрианиш",
    "code": "CAL",
    "coordinates": {
      "lon": -5.686667,
      "lat": 55.43639
    }
  },
  {
    "name": "Байюн",
    "code": "CAN",
    "coordinates": {
      "lon": 113.29734,
      "lat": 23.387861
    }
  },
  {
    "name": "Кап-Аитьен",
    "code": "CAP",
    "coordinates": {
      "lon": -72.195,
      "lat": 19.732779
    }
  },
  {
    "name": "Кэт-Айленд",
    "code": "CAT",
    "coordinates": {
      "lon": -75.45361,
      "lat": 24.315
    }
  },
  {
    "name": "Бартоломео-Лисандро",
    "code": "CAW",
    "coordinates": {
      "lon": -41.3,
      "lat": -21.75
    }
  },
  {
    "name": "Рошамбо",
    "code": "CAY",
    "coordinates": {
      "lon": -52.36667,
      "lat": 4.816667
    }
  },
  {
    "name": "Хорхе Вильстерманн",
    "code": "CBB",
    "coordinates": {
      "lon": -66.178894,
      "lat": -17.413954
    }
  },
  {
    "name": "Кембридж",
    "code": "CBG",
    "coordinates": {
      "lon": 0.183333,
      "lat": 52.2
    }
  },
  {
    "name": "Аванг",
    "code": "CBO",
    "coordinates": {
      "lon": 124.21464,
      "lat": 7.161412
    }
  },
  {
    "name": "Калабар",
    "code": "CBQ",
    "coordinates": {
      "lon": 8.347415,
      "lat": 4.96889
    }
  },
  {
    "name": "Канберра",
    "code": "CBR",
    "coordinates": {
      "lon": 149.19052,
      "lat": -35.30735
    }
  },
  {
    "name": "Катумбела",
    "code": "CBT",
    "coordinates": {
      "lon": 13.483333,
      "lat": -12.483333
    }
  },
  {
    "name": "Кайо-Коко",
    "code": "CCC",
    "coordinates": {
      "lon": -78.50833,
      "lat": 22.5125
    }
  },
  {
    "name": "Каркасон",
    "code": "CCF",
    "coordinates": {
      "lon": 2.316667,
      "lat": 43.216667
    }
  },
  {
    "name": "Кожикоде",
    "code": "CCJ",
    "coordinates": {
      "lon": 75.950584,
      "lat": 11.14025
    }
  },
  {
    "name": "Кокосовые острова",
    "code": "CCK",
    "coordinates": {
      "lon": 96.916664,
      "lat": -12.166667
    }
  },
  {
    "name": "Карриел Сур",
    "code": "CCP",
    "coordinates": {
      "lon": -73.05944,
      "lat": -36.777122
    }
  },
  {
    "name": "Конкорд",
    "code": "CCR",
    "coordinates": {
      "lon": -122.05556,
      "lat": 37.988888
    }
  },
  {
    "name": "Симон Боливар",
    "code": "CCS",
    "coordinates": {
      "lon": -67.00551,
      "lat": 10.596942
    }
  },
  {
    "name": "Нетаджи-Сабхас-Чандра",
    "code": "CCU",
    "coordinates": {
      "lon": 88.43931,
      "lat": 22.64531
    }
  },
  {
    "name": "Колд-Бей",
    "code": "CDB",
    "coordinates": {
      "lon": -162.71774,
      "lat": 55.20457
    }
  },
  {
    "name": "Седар-Сити",
    "code": "CDC",
    "coordinates": {
      "lon": -113.09611,
      "lat": 37.7025
    }
  },
  {
    "name": "Шарль де Голль",
    "code": "CDG",
    "coordinates": {
      "lon": 2.567023,
      "lat": 49.003197
    }
  },
  {
    "name": "Чадрон",
    "code": "CDR",
    "coordinates": {
      "lon": -103.09778,
      "lat": 42.835
    }
  },
  {
    "name": "Мадхол-Смит",
    "code": "CDV",
    "coordinates": {
      "lon": -145.47,
      "lat": 60.493057
    }
  },
  {
    "name": "Cadiz",
    "code": "CDZ",
    "coordinates": {
      "lon": -6.3,
      "lat": 36.533333
    }
  },
  {
    "name": "Себу-Мактан",
    "code": "CEB",
    "coordinates": {
      "lon": 123.98278,
      "lat": 10.313333
    }
  },
  {
    "name": "Мак-Намара-Филд",
    "code": "CEC",
    "coordinates": {
      "lon": -124.23583,
      "lat": 41.78
    }
  },
  {
    "name": "Сидуна",
    "code": "CED",
    "coordinates": {
      "lon": 133.70122,
      "lat": -32.12378
    }
  },
  {
    "name": "Череповец",
    "code": "CEE",
    "coordinates": {
      "lon": 38.066666,
      "lat": 59.283333
    }
  },
  {
    "name": "Честер",
    "code": "CEG",
    "coordinates": {
      "lon": -2.916667,
      "lat": 53.166668
    }
  },
  {
    "name": "Чианграй",
    "code": "CEI",
    "coordinates": {
      "lon": 99.878815,
      "lat": 19.954609
    }
  },
  {
    "name": "Баландино",
    "code": "CEK",
    "coordinates": {
      "lon": 61.51235,
      "lat": 55.297504
    }
  },
  {
    "name": "Сьюдад-Обрегон",
    "code": "CEN",
    "coordinates": {
      "lon": -109.839165,
      "lat": 27.391945
    }
  },
  {
    "name": "Кортес",
    "code": "CEZ",
    "coordinates": {
      "lon": -108.62722,
      "lat": 37.302776
    }
  },
  {
    "name": "Кабу-Фриу",
    "code": "CFB",
    "coordinates": {
      "lon": -42.07861,
      "lat": -22.925
    }
  },
  {
    "name": "Ольна",
    "code": "CFE",
    "coordinates": {
      "lon": 3.163893,
      "lat": 45.78032
    }
  },
  {
    "name": "Сьенфуэгос",
    "code": "CFG",
    "coordinates": {
      "lon": -80.41417,
      "lat": 22.15
    }
  },
  {
    "name": "Шлеф",
    "code": "CFK",
    "coordinates": {
      "lon": 1.331667,
      "lat": 36.212223
    }
  },
  {
    "name": "Донегал",
    "code": "CFN",
    "coordinates": {
      "lon": -8.340278,
      "lat": 55.041668
    }
  },
  {
    "name": "Карпике",
    "code": "CFR",
    "coordinates": {
      "lon": -0.459276,
      "lat": 49.183437
    }
  },
  {
    "name": "Кофс-Харбор",
    "code": "CFS",
    "coordinates": {
      "lon": 153.1153,
      "lat": -30.322863
    }
  },
  {
    "name": "Иоанис Каподистриас",
    "code": "CFU",
    "coordinates": {
      "lon": 19.914644,
      "lat": 39.60784
    }
  },
  {
    "name": "Куяба",
    "code": "CGB",
    "coordinates": {
      "lon": -56.120266,
      "lat": -15.651725
    }
  },
  {
    "name": "Чандэ",
    "code": "CGD",
    "coordinates": {
      "lon": 111.63886,
      "lat": 28.924467
    }
  },
  {
    "name": "Конгоньяс",
    "code": "CGH",
    "coordinates": {
      "lon": -46.659557,
      "lat": -23.626902
    }
  },
  {
    "name": "Кейп Джирардо",
    "code": "CGI",
    "coordinates": {
      "lon": -89.57167,
      "lat": 37.22361
    }
  },
  {
    "name": "Сукарно-Хатта",
    "code": "CGK",
    "coordinates": {
      "lon": 106.655525,
      "lat": -6.130643
    }
  },
  {
    "name": "Кельн-Бонн",
    "code": "CGN",
    "coordinates": {
      "lon": 7.122224,
      "lat": 50.878365
    }
  },
  {
    "name": "Чжэнчжоу",
    "code": "CGO",
    "coordinates": {
      "lon": 113.84024,
      "lat": 34.52752
    }
  },
  {
    "name": "Патенга",
    "code": "CGP",
    "coordinates": {
      "lon": 91.81516,
      "lat": 22.245201
    }
  },
  {
    "name": "Чанчунь",
    "code": "CGQ",
    "coordinates": {
      "lon": 125.217545,
      "lat": 43.902836
    }
  },
  {
    "name": "Кампу-Гранди",
    "code": "CGR",
    "coordinates": {
      "lon": -54.668873,
      "lat": -20.456991
    }
  },
  {
    "name": "Ламбия",
    "code": "CGY",
    "coordinates": {
      "lon": 124.61157,
      "lat": 8.407744
    }
  },
  {
    "name": "Ловелл-Филд",
    "code": "CHA",
    "coordinates": {
      "lon": -85.197784,
      "lat": 35.036926
    }
  },
  {
    "name": "Крайстчерч",
    "code": "CHC",
    "coordinates": {
      "lon": 172.5389,
      "lat": -43.488655
    }
  },
  {
    "name": "Чаоян",
    "code": "CHG",
    "coordinates": {
      "lon": 120.4372,
      "lat": 41.545082
    }
  },
  {
    "name": "Шарлотсвилл",
    "code": "CHO",
    "coordinates": {
      "lon": -78.44928,
      "lat": 38.139416
    }
  },
  {
    "name": "Соуда",
    "code": "CHQ",
    "coordinates": {
      "lon": 24.140373,
      "lat": 35.5402
    }
  },
  {
    "name": "Чарлстон",
    "code": "CHS",
    "coordinates": {
      "lon": -80.037155,
      "lat": 32.884354
    }
  },
  {
    "name": "Чуатбалук",
    "code": "CHU",
    "coordinates": {
      "lon": -159.23882,
      "lat": 61.583435
    }
  },
  {
    "name": "Шуазёль",
    "code": "CHY",
    "coordinates": {
      "lon": 156.39856,
      "lat": -6.713787
    }
  },
  {
    "name": "Чампино",
    "code": "CIA",
    "coordinates": {
      "lon": 12.590987,
      "lat": 41.799065
    }
  },
  {
    "name": "Чико",
    "code": "CIC",
    "coordinates": {
      "lon": -121.85667,
      "lat": 39.795834
    }
  },
  {
    "name": "Сидар-Рапидс",
    "code": "CID",
    "coordinates": {
      "lon": -91.7003,
      "lat": 41.889423
    }
  },
  {
    "name": "Чифэн",
    "code": "CIF",
    "coordinates": {
      "lon": 118.91089,
      "lat": 42.237392
    }
  },
  {
    "name": "Чанчжи",
    "code": "CIH",
    "coordinates": {
      "lon": 113.12158,
      "lat": 36.24588
    }
  },
  {
    "name": "Кобиха",
    "code": "CIJ",
    "coordinates": {
      "lon": -68.75278,
      "lat": -11.026389
    }
  },
  {
    "name": "Шымкент",
    "code": "CIT",
    "coordinates": {
      "lon": 69.6,
      "lat": 42.3
    }
  },
  {
    "name": "Корнел Руис",
    "code": "CIX",
    "coordinates": {
      "lon": -79.83222,
      "lat": -6.789722
    }
  },
  {
    "name": "Комизо",
    "code": "CIY",
    "coordinates": {
      "lon": 14.606944,
      "lat": 36.99167
    }
  },
  {
    "name": "Кахамарка",
    "code": "CJA",
    "coordinates": {
      "lon": -78.5,
      "lat": -7.133333
    }
  },
  {
    "name": "Пиламеду",
    "code": "CJB",
    "coordinates": {
      "lon": 77.03893,
      "lat": 11.031026
    }
  },
  {
    "name": "Эль-Лоа",
    "code": "CJC",
    "coordinates": {
      "lon": -68.90843,
      "lat": -22.495085
    }
  },
  {
    "name": "Чхонджу",
    "code": "CJJ",
    "coordinates": {
      "lon": 127.49509,
      "lat": 36.7224
    }
  },
  {
    "name": "Чумпхон",
    "code": "CJM",
    "coordinates": {
      "lon": 99.36389,
      "lat": 10.709722
    }
  },
  {
    "name": "Сьюдад-Хуарес",
    "code": "CJS",
    "coordinates": {
      "lon": -106.4361,
      "lat": 31.63593
    }
  },
  {
    "name": "Чеджу",
    "code": "CJU",
    "coordinates": {
      "lon": 126.49312,
      "lat": 33.5067
    }
  },
  {
    "name": "Бенедам",
    "code": "CKB",
    "coordinates": {
      "lon": -80.22945,
      "lat": 39.295555
    }
  },
  {
    "name": "Чунцин",
    "code": "CKG",
    "coordinates": {
      "lon": 106.63408,
      "lat": 29.72034
    }
  },
  {
    "name": "Чокурдах",
    "code": "CKH",
    "coordinates": {
      "lon": 147.88333,
      "lat": 70.63333
    }
  },
  {
    "name": "Караджас",
    "code": "CKS",
    "coordinates": {
      "lon": -50.001945,
      "lat": -6.114749
    }
  },
  {
    "name": "Конакри",
    "code": "CKY",
    "coordinates": {
      "lon": -13.62017,
      "lat": 9.575655
    }
  },
  {
    "name": "Чанаккале",
    "code": "CKZ",
    "coordinates": {
      "lon": 26.4,
      "lat": 40.13333
    }
  },
  {
    "name": "Паломар (Карлсбад)",
    "code": "CLD",
    "coordinates": {
      "lon": -117.26667,
      "lat": 33.11667
    }
  },
  {
    "name": "Хопкинс",
    "code": "CLE",
    "coordinates": {
      "lon": -81.83821,
      "lat": 41.410854
    }
  },
  {
    "name": "Клуж-Напока",
    "code": "CLJ",
    "coordinates": {
      "lon": 23.687014,
      "lat": 46.782063
    }
  },
  {
    "name": "Истервуд",
    "code": "CLL",
    "coordinates": {
      "lon": -96.36682,
      "lat": 30.593842
    }
  },
  {
    "name": "Альфонсо Б. Арагон",
    "code": "CLO",
    "coordinates": {
      "lon": -76.381386,
      "lat": 3.543056
    }
  },
  {
    "name": "Колима",
    "code": "CLQ",
    "coordinates": {
      "lon": -103.65,
      "lat": 19.3
    }
  },
  {
    "name": "Дуглас",
    "code": "CLT",
    "coordinates": {
      "lon": -80.93584,
      "lat": 35.219166
    }
  },
  {
    "name": "Сент-Катерин",
    "code": "CLY",
    "coordinates": {
      "lon": 8.791667,
      "lat": 42.52778
    }
  },
  {
    "name": "Бандаранаике",
    "code": "CMB",
    "coordinates": {
      "lon": 79.8865,
      "lat": 7.174112
    }
  },
  {
    "name": "Сьюдад-дель-Кармен",
    "code": "CME",
    "coordinates": {
      "lon": -91.802734,
      "lat": 18.65103
    }
  },
  {
    "name": "Корумба",
    "code": "CMG",
    "coordinates": {
      "lon": -57.672222,
      "lat": -19.01111
    }
  },
  {
    "name": "Порт-Колумбус",
    "code": "CMH",
    "coordinates": {
      "lon": -82.884964,
      "lat": 39.99818
    }
  },
  {
    "name": "Виллард-Университи",
    "code": "CMI",
    "coordinates": {
      "lon": -88.26905,
      "lat": 40.039665
    }
  },
  {
    "name": "Мохаммед V",
    "code": "CMN",
    "coordinates": {
      "lon": -7.586667,
      "lat": 33.36667
    }
  },
  {
    "name": "Игн-Аграмонте",
    "code": "CMW",
    "coordinates": {
      "lon": -77.849724,
      "lat": 21.418612
    }
  },
  {
    "name": "Хутон",
    "code": "CMX",
    "coordinates": {
      "lon": -88.48639,
      "lat": 47.167778
    }
  },
  {
    "name": "Михаил Когэлничану",
    "code": "CND",
    "coordinates": {
      "lon": 28.483334,
      "lat": 44.35
    }
  },
  {
    "name": "Танкредо-Невас",
    "code": "CNF",
    "coordinates": {
      "lon": -43.963215,
      "lat": -19.632418
    }
  },
  {
    "name": "Клонкарри",
    "code": "CNJ",
    "coordinates": {
      "lon": 140.50851,
      "lat": -20.668905
    }
  },
  {
    "name": "Карлсбад",
    "code": "CNM",
    "coordinates": {
      "lon": -104.26278,
      "lat": 32.337223
    }
  },
  {
    "name": "Нерлерит Инаат",
    "code": "CNP",
    "coordinates": {
      "lon": -22.658333,
      "lat": 70.74306
    }
  },
  {
    "name": "Камба-Пунта",
    "code": "CNQ",
    "coordinates": {
      "lon": -58.762222,
      "lat": -27.449722
    }
  },
  {
    "name": "Кэрнс",
    "code": "CNS",
    "coordinates": {
      "lon": 145.75404,
      "lat": -16.876537
    }
  },
  {
    "name": "Чиангмай",
    "code": "CNX",
    "coordinates": {
      "lon": 98.96841,
      "lat": 18.769573
    }
  },
  {
    "name": "Каньонландс-Филд",
    "code": "CNY",
    "coordinates": {
      "lon": -109.74611,
      "lat": 38.759445
    }
  },
  {
    "name": "Йеллоустон",
    "code": "COD",
    "coordinates": {
      "lon": -109.0275,
      "lat": 44.515835
    }
  },
  {
    "name": "Кочин",
    "code": "COK",
    "coordinates": {
      "lon": 76.39053,
      "lat": 10.155644
    }
  },
  {
    "name": "Котону",
    "code": "COO",
    "coordinates": {
      "lon": 2.385271,
      "lat": 6.353097
    }
  },
  {
    "name": "Пахас-Бланкас",
    "code": "COR",
    "coordinates": {
      "lon": -64.21377,
      "lat": -31.31548
    }
  },
  {
    "name": "Петерсон-Филд",
    "code": "COS",
    "coordinates": {
      "lon": -104.70056,
      "lat": 38.79713
    }
  },
  {
    "name": "Колумбия",
    "code": "COU",
    "coordinates": {
      "lon": -92.21917,
      "lat": 38.81361
    }
  },
  {
    "name": "Чапелко",
    "code": "CPC",
    "coordinates": {
      "lon": -71.13333,
      "lat": -40.066666
    }
  },
  {
    "name": "Кубер-Педи",
    "code": "CPD",
    "coordinates": {
      "lon": 134.75278,
      "lat": -29.044443
    }
  },
  {
    "name": "Кампече",
    "code": "CPE",
    "coordinates": {
      "lon": -90.509445,
      "lat": 19.835
    }
  },
  {
    "name": "Каструп",
    "code": "CPH",
    "coordinates": {
      "lon": 12.647601,
      "lat": 55.62905
    }
  },
  {
    "name": "Десьерто-де-Атакама",
    "code": "CPO",
    "coordinates": {
      "lon": -70.414406,
      "lat": -27.29892
    }
  },
  {
    "name": "Каспер-Натрона Каунти",
    "code": "CPR",
    "coordinates": {
      "lon": -106.4625,
      "lat": 42.90861
    }
  },
  {
    "name": "Кейптаун",
    "code": "CPT",
    "coordinates": {
      "lon": 18.596489,
      "lat": -33.968906
    }
  },
  {
    "name": "Кампина-Гранди",
    "code": "CPV",
    "coordinates": {
      "lon": -35.9,
      "lat": -7.266667
    }
  },
  {
    "name": "Кулебра",
    "code": "CPX",
    "coordinates": {
      "lon": -65.316666,
      "lat": 18.3
    }
  },
  {
    "name": "Крайова",
    "code": "CRA",
    "coordinates": {
      "lon": 23.886389,
      "lat": 44.31889
    }
  },
  {
    "name": "Комодоро Ривадавия",
    "code": "CRD",
    "coordinates": {
      "lon": -67.462776,
      "lat": -45.787224
    }
  },
  {
    "name": "Крукед-Айленд",
    "code": "CRI",
    "coordinates": {
      "lon": -74.15,
      "lat": 22.75
    }
  },
  {
    "name": "Кларк",
    "code": "CRK",
    "coordinates": {
      "lon": 120.546486,
      "lat": 15.182571
    }
  },
  {
    "name": "Шарлеруа",
    "code": "CRL",
    "coordinates": {
      "lon": 4.451703,
      "lat": 50.456696
    }
  },
  {
    "name": "Катерман",
    "code": "CRM",
    "coordinates": {
      "lon": 124.583336,
      "lat": 12.483333
    }
  },
  {
    "name": "Корпус-Кристи международный",
    "code": "CRP",
    "coordinates": {
      "lon": -97.50249,
      "lat": 27.774813
    }
  },
  {
    "name": "Иджер",
    "code": "CRW",
    "coordinates": {
      "lon": -81.596504,
      "lat": 38.370342
    }
  },
  {
    "name": "Соловки",
    "code": "CSH",
    "coordinates": {
      "lon": 35.733334,
      "lat": 65.02944
    }
  },
  {
    "name": "Чанша",
    "code": "CSX",
    "coordinates": {
      "lon": 113.21459,
      "lat": 28.193336
    }
  },
  {
    "name": "Чебоксары",
    "code": "CSY",
    "coordinates": {
      "lon": 47.266666,
      "lat": 56.13333
    }
  },
  {
    "name": "Фонтанаросса",
    "code": "CTA",
    "coordinates": {
      "lon": 15.065877,
      "lat": 37.47066
    }
  },
  {
    "name": "Катамарка",
    "code": "CTC",
    "coordinates": {
      "lon": -65.779724,
      "lat": -28.448334
    }
  },
  {
    "name": "Рафаэль Нунец",
    "code": "CTG",
    "coordinates": {
      "lon": -75.51659,
      "lat": 10.445704
    }
  },
  {
    "name": "Чарлвилл",
    "code": "CTL",
    "coordinates": {
      "lon": 146.25842,
      "lat": -26.413334
    }
  },
  {
    "name": "Четумаль",
    "code": "CTM",
    "coordinates": {
      "lon": -88.333336,
      "lat": 18.481943
    }
  },
  {
    "name": "Куктаун",
    "code": "CTN",
    "coordinates": {
      "lon": 145.18333,
      "lat": -15.443333
    }
  },
  {
    "name": "Читозе",
    "code": "CTS",
    "coordinates": {
      "lon": 141.68134,
      "lat": 42.78728
    }
  },
  {
    "name": "Чэнду",
    "code": "CTU",
    "coordinates": {
      "lon": 103.9568,
      "lat": 30.581135
    }
  },
  {
    "name": "Камило Дазо",
    "code": "CUC",
    "coordinates": {
      "lon": -72.50815,
      "lat": 7.927108
    }
  },
  {
    "name": "Куэнка",
    "code": "CUE",
    "coordinates": {
      "lon": -78.98689,
      "lat": -2.889343
    }
  },
  {
    "name": "Левальдиги",
    "code": "CUF",
    "coordinates": {
      "lon": 7.6175,
      "lat": 44.53528
    }
  },
  {
    "name": "Кульякан",
    "code": "CUL",
    "coordinates": {
      "lon": -107.46958,
      "lat": 24.76643
    }
  },
  {
    "name": "Канкун",
    "code": "CUN",
    "coordinates": {
      "lon": -86.874435,
      "lat": 21.040457
    }
  },
  {
    "name": "Аеропуерто-Хато",
    "code": "CUR",
    "coordinates": {
      "lon": -68.95706,
      "lat": 12.184615
    }
  },
  {
    "name": "Чиуауа",
    "code": "CUU",
    "coordinates": {
      "lon": -105.96952,
      "lat": 28.704048
    }
  },
  {
    "name": "Велаcко Астете",
    "code": "CUZ",
    "coordinates": {
      "lon": -71.94371,
      "lat": -13.538429
    }
  },
  {
    "name": "Цинциннати",
    "code": "CVG",
    "coordinates": {
      "lon": -84.66145,
      "lat": 39.0555
    }
  },
  {
    "name": "Сьюдад-Виктория",
    "code": "CVM",
    "coordinates": {
      "lon": -98.96528,
      "lat": 23.713888
    }
  },
  {
    "name": "Кловис",
    "code": "CVN",
    "coordinates": {
      "lon": -103.07889,
      "lat": 34.427223
    }
  },
  {
    "name": "Карнарвон",
    "code": "CVQ",
    "coordinates": {
      "lon": 113.66358,
      "lat": -24.883429
    }
  },
  {
    "name": "Баджинтон",
    "code": "CVT",
    "coordinates": {
      "lon": -1.478611,
      "lat": 52.369167
    }
  },
  {
    "name": "Корву",
    "code": "CVU",
    "coordinates": {
      "lon": -31.1,
      "lat": 39.7
    }
  },
  {
    "name": "Уосо",
    "code": "CWA",
    "coordinates": {
      "lon": -89.67244,
      "lat": 44.78421
    }
  },
  {
    "name": "Афонсо Пена",
    "code": "CWB",
    "coordinates": {
      "lon": -49.176544,
      "lat": -25.5322
    }
  },
  {
    "name": "Черновцы",
    "code": "CWC",
    "coordinates": {
      "lon": 25.966667,
      "lat": 48.266666
    }
  },
  {
    "name": "Кардифф",
    "code": "CWL",
    "coordinates": {
      "lon": -3.339075,
      "lat": 51.39877
    }
  },
  {
    "name": "Кол-Харбор",
    "code": "CXH",
    "coordinates": {
      "lon": -123.11667,
      "lat": 49.266666
    }
  },
  {
    "name": "Остров Рождества",
    "code": "CXI",
    "coordinates": {
      "lon": -157.45,
      "lat": 1.966667
    }
  },
  {
    "name": "Каксиас-Ду-Сул",
    "code": "CXJ",
    "coordinates": {
      "lon": -51.183334,
      "lat": -29.166668
    }
  },
  {
    "name": "Камрань",
    "code": "CXR",
    "coordinates": {
      "lon": 109.225,
      "lat": 11.993611
    }
  },
  {
    "name": "Геррад-Смит",
    "code": "CYB",
    "coordinates": {
      "lon": -79.87941,
      "lat": 19.690191
    }
  },
  {
    "name": "Чефорнак",
    "code": "CYF",
    "coordinates": {
      "lon": -164.2,
      "lat": 60.216667
    }
  },
  {
    "name": "Цзяи",
    "code": "CYI",
    "coordinates": {
      "lon": 120.38333,
      "lat": 23.466667
    }
  },
  {
    "name": "Кайо-Ларго-Дель-Сур",
    "code": "CYO",
    "coordinates": {
      "lon": -81.51667,
      "lat": 21.616667
    }
  },
  {
    "name": "Кальбайог",
    "code": "CYP",
    "coordinates": {
      "lon": 124.54305,
      "lat": 12.075833
    }
  },
  {
    "name": "Черский",
    "code": "CYX",
    "coordinates": {
      "lon": 161.35,
      "lat": 68.75
    }
  },
  {
    "name": "Кауаян",
    "code": "CYZ",
    "coordinates": {
      "lon": 121.75584,
      "lat": 16.93
    }
  },
  {
    "name": "Айн-Эль-Бей",
    "code": "CZL",
    "coordinates": {
      "lon": 6.618425,
      "lat": 36.286476
    }
  },
  {
    "name": "Косумель",
    "code": "CZM",
    "coordinates": {
      "lon": -86.930466,
      "lat": 20.5112
    }
  },
  {
    "name": "Крузейру-ду-Сул",
    "code": "CZS",
    "coordinates": {
      "lon": -72.78333,
      "lat": -7.583333
    }
  },
  {
    "name": "Коросаль",
    "code": "CZU",
    "coordinates": {
      "lon": -75.282776,
      "lat": 9.3375
    }
  },
  {
    "name": "Чанчжоу",
    "code": "CZX",
    "coordinates": {
      "lon": 119.77976,
      "lat": 31.914116
    }
  },
  {
    "name": "Дейтона-Бич",
    "code": "DAB",
    "coordinates": {
      "lon": -81.06083,
      "lat": 29.185192
    }
  },
  {
    "name": "Шах Джалал",
    "code": "DAC",
    "coordinates": {
      "lon": 90.405876,
      "lat": 23.848648
    }
  },
  {
    "name": "Дананг",
    "code": "DAD",
    "coordinates": {
      "lon": 108.20298,
      "lat": 16.055399
    }
  },
  {
    "name": "Лав-Филд",
    "code": "DAL",
    "coordinates": {
      "lon": -96.85,
      "lat": 32.84391
    }
  },
  {
    "name": "Дамаск",
    "code": "DAM",
    "coordinates": {
      "lon": 36.51249,
      "lat": 33.41117
    }
  },
  {
    "name": "Дар-эс-Салам",
    "code": "DAR",
    "coordinates": {
      "lon": 39.20211,
      "lat": -6.873533
    }
  },
  {
    "name": "Датун",
    "code": "DAT",
    "coordinates": {
      "lon": 113.48136,
      "lat": 40.05554
    }
  },
  {
    "name": "Дару",
    "code": "DAU",
    "coordinates": {
      "lon": 143.20605,
      "lat": -9.08351
    }
  },
  {
    "name": "Энрике Малек",
    "code": "DAV",
    "coordinates": {
      "lon": -82.433334,
      "lat": 8.383333
    }
  },
  {
    "name": "Дасянь",
    "code": "DAX",
    "coordinates": {
      "lon": 107.42689,
      "lat": 31.135012
    }
  },
  {
    "name": "Дейтон",
    "code": "DAY",
    "coordinates": {
      "lon": -84.220764,
      "lat": 39.898006
    }
  },
  {
    "name": "Даббо",
    "code": "DBO",
    "coordinates": {
      "lon": 148.56956,
      "lat": -32.218822
    }
  },
  {
    "name": "Дабек",
    "code": "DBQ",
    "coordinates": {
      "lon": -90.71083,
      "lat": 42.41
    }
  },
  {
    "name": "Дубровник",
    "code": "DBV",
    "coordinates": {
      "lon": 18.260616,
      "lat": 42.56072
    }
  },
  {
    "name": "Рональд Рейган",
    "code": "DCA",
    "coordinates": {
      "lon": -77.04346,
      "lat": 38.853436
    }
  },
  {
    "name": "Доминика",
    "code": "DCF",
    "coordinates": {
      "lon": -61.333332,
      "lat": 15.5
    }
  },
  {
    "name": "Мазаме",
    "code": "DCM",
    "coordinates": {
      "lon": 2.284167,
      "lat": 43.555832
    }
  },
  {
    "name": "Додж-Сити",
    "code": "DDC",
    "coordinates": {
      "lon": -99.965,
      "lat": 37.761665
    }
  },
  {
    "name": "Даньдун",
    "code": "DDG",
    "coordinates": {
      "lon": 124.28081,
      "lat": 40.032368
    }
  },
  {
    "name": "Дерагазихан",
    "code": "DEA",
    "coordinates": {
      "lon": 70.485275,
      "lat": 29.960556
    }
  },
  {
    "name": "Дебрецен",
    "code": "DEB",
    "coordinates": {
      "lon": 21.7,
      "lat": 47.55
    }
  },
  {
    "name": "Декейтер",
    "code": "DEC",
    "coordinates": {
      "lon": -88.868614,
      "lat": 39.834167
    }
  },
  {
    "name": "Дехрадун",
    "code": "DED",
    "coordinates": {
      "lon": 78.03333,
      "lat": 30.316668
    }
  },
  {
    "name": "Дизфуль",
    "code": "DEF",
    "coordinates": {
      "lon": 48.38468,
      "lat": 32.438828
    }
  },
  {
    "name": "Индира Ганди",
    "code": "DEL",
    "coordinates": {
      "lon": 77.10079,
      "lat": 28.556555
    }
  },
  {
    "name": "Денвер",
    "code": "DEN",
    "coordinates": {
      "lon": -104.672844,
      "lat": 39.84939
    }
  },
  {
    "name": "Форт-Уорт",
    "code": "DFW",
    "coordinates": {
      "lon": -97.036125,
      "lat": 32.89746
    }
  },
  {
    "name": "Дуранго",
    "code": "DGO",
    "coordinates": {
      "lon": -104.525,
      "lat": 24.125
    }
  },
  {
    "name": "Думагете",
    "code": "DGT",
    "coordinates": {
      "lon": 123.29601,
      "lat": 9.332543
    }
  },
  {
    "name": "Гаггал",
    "code": "DHM",
    "coordinates": {
      "lon": 76.26667,
      "lat": 32.3
    }
  },
  {
    "name": "Дотан",
    "code": "DHN",
    "coordinates": {
      "lon": -85.44833,
      "lat": 31.32
    }
  },
  {
    "name": "Шабуа",
    "code": "DIB",
    "coordinates": {
      "lon": 95.021065,
      "lat": 27.482908
    }
  },
  {
    "name": "Дикинг",
    "code": "DIG",
    "coordinates": {
      "lon": 99.67778,
      "lat": 27.789722
    }
  },
  {
    "name": "Дикинсон",
    "code": "DIK",
    "coordinates": {
      "lon": -102.9,
      "lat": 46.833332
    }
  },
  {
    "name": "Коморо",
    "code": "DIL",
    "coordinates": {
      "lon": 125.525,
      "lat": -8.549616
    }
  },
  {
    "name": "Дьенбьенфу",
    "code": "DIN",
    "coordinates": {
      "lon": 103,
      "lat": 21.383333
    }
  },
  {
    "name": "Аба-Тенна",
    "code": "DIR",
    "coordinates": {
      "lon": 41.857994,
      "lat": 9.61338
    }
  },
  {
    "name": "Диу",
    "code": "DIU",
    "coordinates": {
      "lon": 70.916664,
      "lat": 20.716667
    }
  },
  {
    "name": "Диквелла",
    "code": "DIW",
    "coordinates": {
      "lon": 80.73323,
      "lat": 5.990751
    }
  },
  {
    "name": "Диярбакыр",
    "code": "DIY",
    "coordinates": {
      "lon": 40.20458,
      "lat": 37.903873
    }
  },
  {
    "name": "Султан Таха Сярифадн",
    "code": "DJB",
    "coordinates": {
      "lon": 103.63936,
      "lat": -1.630432
    }
  },
  {
    "name": "Мелита",
    "code": "DJE",
    "coordinates": {
      "lon": 10.775145,
      "lat": 33.87118
    }
  },
  {
    "name": "Джане",
    "code": "DJG",
    "coordinates": {
      "lon": 9.488889,
      "lat": 24.465279
    }
  },
  {
    "name": "Сентани",
    "code": "DJJ",
    "coordinates": {
      "lon": 140.51299,
      "lat": -2.569887
    }
  },
  {
    "name": "Иофф",
    "code": "DKR",
    "coordinates": {
      "lon": -17.490194,
      "lat": 14.744975
    }
  },
  {
    "name": "Дуала",
    "code": "DLA",
    "coordinates": {
      "lon": 9.717018,
      "lat": 4.01346
    }
  },
  {
    "name": "Далянь",
    "code": "DLC",
    "coordinates": {
      "lon": 121.53999,
      "lat": 38.96102
    }
  },
  {
    "name": "Доль",
    "code": "DLE",
    "coordinates": {
      "lon": 5.433333,
      "lat": 47.05
    }
  },
  {
    "name": "Диллингхем",
    "code": "DLG",
    "coordinates": {
      "lon": -158.51472,
      "lat": 59.04246
    }
  },
  {
    "name": "Дулут",
    "code": "DLH",
    "coordinates": {
      "lon": -92.18019,
      "lat": 46.838974
    }
  },
  {
    "name": "Линханг",
    "code": "DLI",
    "coordinates": {
      "lon": 108.37603,
      "lat": 11.749689
    }
  },
  {
    "name": "Даламан",
    "code": "DLM",
    "coordinates": {
      "lon": 28.783333,
      "lat": 36.716667
    }
  },
  {
    "name": "Дали",
    "code": "DLU",
    "coordinates": {
      "lon": 100.32316,
      "lat": 25.65135
    }
  },
  {
    "name": "Тараз",
    "code": "DMB",
    "coordinates": {
      "lon": 71.36667,
      "lat": 42.9
    }
  },
  {
    "name": "Думаджи",
    "code": "DMD",
    "coordinates": {
      "lon": 138.8216,
      "lat": -17.939201
    }
  },
  {
    "name": "Домодедово",
    "code": "DME",
    "coordinates": {
      "lon": 37.899494,
      "lat": 55.414566
    }
  },
  {
    "name": "Дон-Муанг",
    "code": "DMK",
    "coordinates": {
      "lon": 100.60667,
      "lat": 13.9125
    }
  },
  {
    "name": "Кинг Фахд",
    "code": "DMM",
    "coordinates": {
      "lon": 49.79778,
      "lat": 26.471111
    }
  },
  {
    "name": "Димапур",
    "code": "DMU",
    "coordinates": {
      "lon": 93.772865,
      "lat": 25.879816
    }
  },
  {
    "name": "Данди",
    "code": "DND",
    "coordinates": {
      "lon": -3.014531,
      "lat": 56.45409
    }
  },
  {
    "name": "Дуньхуан",
    "code": "DNH",
    "coordinates": {
      "lon": 94.683334,
      "lat": 40.2
    }
  },
  {
    "name": "Днепропетровск",
    "code": "DNK",
    "coordinates": {
      "lon": 35.09446,
      "lat": 48.36874
    }
  },
  {
    "name": "Плертюи",
    "code": "DNR",
    "coordinates": {
      "lon": -2.083611,
      "lat": 48.587776
    }
  },
  {
    "name": "Чардак",
    "code": "DNZ",
    "coordinates": {
      "lon": 29.703333,
      "lat": 37.787224
    }
  },
  {
    "name": "Додома",
    "code": "DOD",
    "coordinates": {
      "lon": 35.75028,
      "lat": -6.166667
    }
  },
  {
    "name": "Доха",
    "code": "DOH",
    "coordinates": {
      "lon": 51.558067,
      "lat": 25.267569
    }
  },
  {
    "name": "Довиль",
    "code": "DOL",
    "coordinates": {
      "lon": 0.164167,
      "lat": 49.362778
    }
  },
  {
    "name": "Мелвильхол",
    "code": "DOM",
    "coordinates": {
      "lon": -61.309166,
      "lat": 15.543056
    }
  },
  {
    "name": "Дорадус",
    "code": "DOU",
    "coordinates": {
      "lon": -54.925556,
      "lat": -22.202778
    }
  },
  {
    "name": "Дунъин",
    "code": "DOY",
    "coordinates": {
      "lon": 118.78778,
      "lat": 37.518333
    }
  },
  {
    "name": "Дюпаж",
    "code": "DPA",
    "coordinates": {
      "lon": -88.24639,
      "lat": 41.914444
    }
  },
  {
    "name": "Диполог",
    "code": "DPL",
    "coordinates": {
      "lon": 123.34418,
      "lat": 8.599978
    }
  },
  {
    "name": "Девонпорт",
    "code": "DPO",
    "coordinates": {
      "lon": 146.42754,
      "lat": -41.172054
    }
  },
  {
    "name": "Нгура-Раи",
    "code": "DPS",
    "coordinates": {
      "lon": 115.16331,
      "lat": -8.74446
    }
  },
  {
    "name": "Диринг",
    "code": "DRG",
    "coordinates": {
      "lon": -162.75989,
      "lat": 66.0712
    }
  },
  {
    "name": "Дуранго-Ла-Плата",
    "code": "DRO",
    "coordinates": {
      "lon": -107.751076,
      "lat": 37.15995
    }
  },
  {
    "name": "Дрезден",
    "code": "DRS",
    "coordinates": {
      "lon": 13.766082,
      "lat": 51.124332
    }
  },
  {
    "name": "Дель-Рио",
    "code": "DRT",
    "coordinates": {
      "lon": -100.97833,
      "lat": 29.333332
    }
  },
  {
    "name": "Дарвин",
    "code": "DRW",
    "coordinates": {
      "lon": 130.87752,
      "lat": -12.407805
    }
  },
  {
    "name": "Робин Гуд Донкастер Шеффилд",
    "code": "DSA",
    "coordinates": {
      "lon": -1.01155,
      "lat": 53.481003
    }
  },
  {
    "name": "Дестин",
    "code": "DSI",
    "coordinates": {
      "lon": -86.5,
      "lat": 30.383333
    }
  },
  {
    "name": "Де-Мойн",
    "code": "DSM",
    "coordinates": {
      "lon": -93.64809,
      "lat": 41.532433
    }
  },
  {
    "name": "Дуншэн",
    "code": "DSN",
    "coordinates": {
      "lon": 110.03333,
      "lat": 39.85
    }
  },
  {
    "name": "Дортмунд",
    "code": "DTM",
    "coordinates": {
      "lon": 7.613139,
      "lat": 51.514828
    }
  },
  {
    "name": "Вайн",
    "code": "DTW",
    "coordinates": {
      "lon": -83.35605,
      "lat": 42.20781
    }
  },
  {
    "name": "Дублин",
    "code": "DUB",
    "coordinates": {
      "lon": -6.24357,
      "lat": 53.42728
    }
  },
  {
    "name": "Данидин",
    "code": "DUD",
    "coordinates": {
      "lon": 170.19905,
      "lat": -45.92387
    }
  },
  {
    "name": "Дурбан",
    "code": "DUR",
    "coordinates": {
      "lon": 31.116388,
      "lat": -29.614445
    }
  },
  {
    "name": "Дюссельдорф",
    "code": "DUS",
    "coordinates": {
      "lon": 6.76558,
      "lat": 51.278328
    }
  },
  {
    "name": "Датч Харбор",
    "code": "DUT",
    "coordinates": {
      "lon": -166.54224,
      "lat": 53.89446
    }
  },
  {
    "name": "Девилс Лейк",
    "code": "DVL",
    "coordinates": {
      "lon": -98.9075,
      "lat": 48.113056
    }
  },
  {
    "name": "Давао",
    "code": "DVO",
    "coordinates": {
      "lon": 125.6447,
      "lat": 7.130696
    }
  },
  {
    "name": "Аль-Мактум",
    "code": "DWC",
    "coordinates": {
      "lon": 55.175278,
      "lat": 24.918056
    }
  },
  {
    "name": "Эд-Давадии",
    "code": "DWD",
    "coordinates": {
      "lon": 44.1287,
      "lat": 24.445545
    }
  },
  {
    "name": "Дубай",
    "code": "DXB",
    "coordinates": {
      "lon": 55.352917,
      "lat": 25.248665
    }
  },
  {
    "name": "Даюн",
    "code": "DYG",
    "coordinates": {
      "lon": 110.44569,
      "lat": 29.10712
    }
  },
  {
    "name": "Угольный",
    "code": "DYR",
    "coordinates": {
      "lon": 177.75,
      "lat": 64.73333
    }
  },
  {
    "name": "Душанбе",
    "code": "DYU",
    "coordinates": {
      "lon": 68.81728,
      "lat": 38.54894
    }
  },
  {
    "name": "Дзаудзи",
    "code": "DZA",
    "coordinates": {
      "lon": 45.2821,
      "lat": -12.804901
    }
  },
  {
    "name": "Жезказган",
    "code": "DZN",
    "coordinates": {
      "lon": 67.73333,
      "lat": 47.7
    }
  },
  {
    "name": "Карни",
    "code": "EAR",
    "coordinates": {
      "lon": -98.998886,
      "lat": 40.728333
    }
  },
  {
    "name": "Сан-Себастьян",
    "code": "EAS",
    "coordinates": {
      "lon": -1.793538,
      "lat": 43.3564
    }
  },
  {
    "name": "Пангборн-Филд",
    "code": "EAT",
    "coordinates": {
      "lon": -120.20778,
      "lat": 47.399723
    }
  },
  {
    "name": "О-Клэр",
    "code": "EAU",
    "coordinates": {
      "lon": -91.48722,
      "lat": 44.864445
    }
  },
  {
    "name": "Эльба",
    "code": "EBA",
    "coordinates": {
      "lon": 10.283333,
      "lat": 42.766666
    }
  },
  {
    "name": "Энтеббе",
    "code": "EBB",
    "coordinates": {
      "lon": 32.443184,
      "lat": 0.045111
    }
  },
  {
    "name": "Эсбьерг",
    "code": "EBJ",
    "coordinates": {
      "lon": 8.549062,
      "lat": 55.52143
    }
  },
  {
    "name": "Эрбиль",
    "code": "EBL",
    "coordinates": {
      "lon": 43.963055,
      "lat": 36.2375
    }
  },
  {
    "name": "Сент-Этьен",
    "code": "EBU",
    "coordinates": {
      "lon": 4.296944,
      "lat": 45.54139
    }
  },
  {
    "name": "Эрджан",
    "code": "ECN",
    "coordinates": {
      "lon": 33.50307,
      "lat": 35.15812
    }
  },
  {
    "name": "Эдинбург",
    "code": "EDI",
    "coordinates": {
      "lon": -3.364177,
      "lat": 55.948143
    }
  },
  {
    "name": "Элдорет",
    "code": "EDL",
    "coordinates": {
      "lon": 35.2236,
      "lat": 0.4054
    }
  },
  {
    "name": "Эдремит-Корфез",
    "code": "EDO",
    "coordinates": {
      "lon": 27.033333,
      "lat": 39.583332
    }
  },
  {
    "name": "Ик",
    "code": "EEK",
    "coordinates": {
      "lon": -162.01666,
      "lat": 60.216667
    }
  },
  {
    "name": "Аргостолион",
    "code": "EFL",
    "coordinates": {
      "lon": 20.505556,
      "lat": 38.118057
    }
  },
  {
    "name": "Руманьер",
    "code": "EGC",
    "coordinates": {
      "lon": 0.483333,
      "lat": 44.85
    }
  },
  {
    "name": "Игл",
    "code": "EGE",
    "coordinates": {
      "lon": -106.91347,
      "lat": 39.63988
    }
  },
  {
    "name": "Сеге",
    "code": "EGM",
    "coordinates": {
      "lon": 157.87506,
      "lat": -8.577956
    }
  },
  {
    "name": "Эль-Генейна",
    "code": "EGN",
    "coordinates": {
      "lon": 22.469444,
      "lat": 13.4875
    }
  },
  {
    "name": "Белгород",
    "code": "EGO",
    "coordinates": {
      "lon": 36.65,
      "lat": 50.63333
    }
  },
  {
    "name": "Эгильсстадир",
    "code": "EGS",
    "coordinates": {
      "lon": -14.402778,
      "lat": 65.27778
    }
  },
  {
    "name": "Эгиджик",
    "code": "EGX",
    "coordinates": {
      "lon": -157.37029,
      "lat": 58.20778
    }
  },
  {
    "name": "Эйндховен",
    "code": "EIN",
    "coordinates": {
      "lon": 5.391795,
      "lat": 51.457954
    }
  },
  {
    "name": "Тортола",
    "code": "EIS",
    "coordinates": {
      "lon": -64.54278,
      "lat": 18.44389
    }
  },
  {
    "name": "Варигуес",
    "code": "EJA",
    "coordinates": {
      "lon": -73.799164,
      "lat": 7.015833
    }
  },
  {
    "name": "Эль-Ваджх",
    "code": "EJH",
    "coordinates": {
      "lon": 36.47481,
      "lat": 26.207716
    }
  },
  {
    "name": "Элко",
    "code": "EKO",
    "coordinates": {
      "lon": -115.78972,
      "lat": 40.82389
    }
  },
  {
    "name": "Элко",
    "code": "ELC",
    "coordinates": {
      "lon": 135.5698,
      "lat": -12.019817
    }
  },
  {
    "name": "Гудвин-Филд",
    "code": "ELD",
    "coordinates": {
      "lon": -92.81472,
      "lat": 33.220554
    }
  },
  {
    "name": "Эль-Фашир",
    "code": "ELF",
    "coordinates": {
      "lon": 25.316668,
      "lat": 13.616667
    }
  },
  {
    "name": "Эль-Голеа",
    "code": "ELG",
    "coordinates": {
      "lon": 2.864722,
      "lat": 30.5675
    }
  },
  {
    "name": "Норт-Элеутера",
    "code": "ELH",
    "coordinates": {
      "lon": -76.68192,
      "lat": 25.476917
    }
  },
  {
    "name": "Элим",
    "code": "ELI",
    "coordinates": {
      "lon": -162.27028,
      "lat": 64.61361
    }
  },
  {
    "name": "Элмайра Корнинг",
    "code": "ELM",
    "coordinates": {
      "lon": -76.89586,
      "lat": 42.16304
    }
  },
  {
    "name": "Эль-Пасо",
    "code": "ELP",
    "coordinates": {
      "lon": -106.396,
      "lat": 31.798948
    }
  },
  {
    "name": "Гассим",
    "code": "ELQ",
    "coordinates": {
      "lon": 43.768177,
      "lat": 26.305029
    }
  },
  {
    "name": "Ист-Лондон",
    "code": "ELS",
    "coordinates": {
      "lon": 27.82892,
      "lat": -33.038437
    }
  },
  {
    "name": "Эль-Уэд",
    "code": "ELU",
    "coordinates": {
      "lon": 6.783333,
      "lat": 33.516666
    }
  },
  {
    "name": "Elfin Cove SPB",
    "code": "ELV",
    "coordinates": {
      "lon": -136.31667,
      "lat": 58.183334
    }
  },
  {
    "name": "Ист-Мидленс",
    "code": "EMA",
    "coordinates": {
      "lon": -1.330595,
      "lat": 52.82587
    }
  },
  {
    "name": "Эмералд",
    "code": "EMD",
    "coordinates": {
      "lon": 148.1744,
      "lat": -23.56861
    }
  },
  {
    "name": "Эммонак",
    "code": "EMK",
    "coordinates": {
      "lon": -164.52083,
      "lat": 62.776943
    }
  },
  {
    "name": "Кенай",
    "code": "ENA",
    "coordinates": {
      "lon": -151.24644,
      "lat": 60.56521
    }
  },
  {
    "name": "Энде",
    "code": "ENE",
    "coordinates": {
      "lon": 121.65,
      "lat": -8.833333
    }
  },
  {
    "name": "Эньши",
    "code": "ENH",
    "coordinates": {
      "lon": 109.48201,
      "lat": 30.321934
    }
  },
  {
    "name": "Энугу",
    "code": "ENU",
    "coordinates": {
      "lon": 7.56772,
      "lat": 6.472048
    }
  },
  {
    "name": "Энрике Олая Эррера",
    "code": "EOH",
    "coordinates": {
      "lon": -75.5864,
      "lat": 6.218666
    }
  },
  {
    "name": "Идей",
    "code": "EOI",
    "coordinates": {
      "lon": -2.783333,
      "lat": 59.183334
    }
  },
  {
    "name": "Эсперанс",
    "code": "EPR",
    "coordinates": {
      "lon": 121.83039,
      "lat": -33.68248
    }
  },
  {
    "name": "Эскель",
    "code": "EQS",
    "coordinates": {
      "lon": -71.1425,
      "lat": -42.90972
    }
  },
  {
    "name": "Эрзинджан",
    "code": "ERC",
    "coordinates": {
      "lon": 39.516945,
      "lat": 39.711666
    }
  },
  {
    "name": "Эрфурт",
    "code": "ERF",
    "coordinates": {
      "lon": 10.961163,
      "lat": 50.974915
    }
  },
  {
    "name": "Эр-Рашидия",
    "code": "ERH",
    "coordinates": {
      "lon": -4.4,
      "lat": 31.95
    }
  },
  {
    "name": "Эри",
    "code": "ERI",
    "coordinates": {
      "lon": -80.18203,
      "lat": 42.08314
    }
  },
  {
    "name": "Эрос",
    "code": "ERS",
    "coordinates": {
      "lon": 17.083332,
      "lat": -22.616667
    }
  },
  {
    "name": "Эрзурум",
    "code": "ERZ",
    "coordinates": {
      "lon": 41.17361,
      "lat": 39.955555
    }
  },
  {
    "name": "Эсенбога",
    "code": "ESB",
    "coordinates": {
      "lon": 32.993145,
      "lat": 40.11494
    }
  },
  {
    "name": "Дельта",
    "code": "ESC",
    "coordinates": {
      "lon": -87.08667,
      "lat": 45.720554
    }
  },
  {
    "name": "Истсаунд",
    "code": "ESD",
    "coordinates": {
      "lon": -122.9125,
      "lat": 48.708332
    }
  },
  {
    "name": "Элиста",
    "code": "ESL",
    "coordinates": {
      "lon": 44.333332,
      "lat": 46.36667
    }
  },
  {
    "name": "Эсмеральда",
    "code": "ESM",
    "coordinates": {
      "lon": -79.625,
      "lat": 0.966667
    }
  },
  {
    "name": "Эс-Сувейра",
    "code": "ESU",
    "coordinates": {
      "lon": -9.681667,
      "lat": 31.3975
    }
  },
  {
    "name": "Эйлат",
    "code": "ETH",
    "coordinates": {
      "lon": 34.95357,
      "lat": 29.555616
    }
  },
  {
    "name": "Мец",
    "code": "ETZ",
    "coordinates": {
      "lon": 6.243003,
      "lat": 48.98165
    }
  },
  {
    "name": "Юджин",
    "code": "EUG",
    "coordinates": {
      "lon": -123.21197,
      "lat": 44.119198
    }
  },
  {
    "name": "Хассан",
    "code": "EUN",
    "coordinates": {
      "lon": -13.216667,
      "lat": 27.133333
    }
  },
  {
    "name": "Синт-Эстатиус",
    "code": "EUX",
    "coordinates": {
      "lon": -62.97778,
      "lat": 17.493055
    }
  },
  {
    "name": "Эвенес",
    "code": "EVE",
    "coordinates": {
      "lon": 16.679722,
      "lat": 68.496666
    }
  },
  {
    "name": "Свег",
    "code": "EVG",
    "coordinates": {
      "lon": 14.35,
      "lat": 62.033333
    }
  },
  {
    "name": "Звартноц",
    "code": "EVN",
    "coordinates": {
      "lon": 44.39805,
      "lat": 40.15272
    }
  },
  {
    "name": "Эвансвилл",
    "code": "EVV",
    "coordinates": {
      "lon": -87.52796,
      "lat": 38.046165
    }
  },
  {
    "name": "Нью-Бедфорд",
    "code": "EWB",
    "coordinates": {
      "lon": -70.95917,
      "lat": 41.676945
    }
  },
  {
    "name": "Сайммонс Нотт",
    "code": "EWN",
    "coordinates": {
      "lon": -77.03462,
      "lat": 35.078342
    }
  },
  {
    "name": "Ньюарк Либерти",
    "code": "EWR",
    "coordinates": {
      "lon": -74.17876,
      "lat": 40.68907
    }
  },
  {
    "name": "SPB",
    "code": "EXI",
    "coordinates": {
      "lon": -135.44722,
      "lat": 58.420834
    }
  },
  {
    "name": "Эксетер",
    "code": "EXT",
    "coordinates": {
      "lon": -3.410968,
      "lat": 50.73111
    }
  },
  {
    "name": "Эль-Йопал",
    "code": "EYP",
    "coordinates": {
      "lon": -72.386284,
      "lat": 5.320729
    }
  },
  {
    "name": "Ки-Уэст",
    "code": "EYW",
    "coordinates": {
      "lon": -81.75501,
      "lat": 24.553574
    }
  },
  {
    "name": "Министро Пистарини",
    "code": "EZE",
    "coordinates": {
      "lon": -58.539833,
      "lat": -34.81273
    }
  },
  {
    "name": "Элязыг",
    "code": "EZS",
    "coordinates": {
      "lon": 39.291668,
      "lat": 38.608334
    }
  },
  {
    "name": "Вагар",
    "code": "FAE",
    "coordinates": {
      "lon": -7.266667,
      "lat": 62.066666
    }
  },
  {
    "name": "Фэрбанкс",
    "code": "FAI",
    "coordinates": {
      "lon": -147.8668,
      "lat": 64.818214
    }
  },
  {
    "name": "Фару",
    "code": "FAO",
    "coordinates": {
      "lon": -7.968545,
      "lat": 37.020645
    }
  },
  {
    "name": "Гектор-Филд",
    "code": "FAR",
    "coordinates": {
      "lon": -96.82551,
      "lat": 46.91953
    }
  },
  {
    "name": "Фресно",
    "code": "FAT",
    "coordinates": {
      "lon": -119.72024,
      "lat": 36.769623
    }
  },
  {
    "name": "Факарава",
    "code": "FAV",
    "coordinates": {
      "lon": -145.65225,
      "lat": -16.053486
    }
  },
  {
    "name": "Фейетвилл",
    "code": "FAY",
    "coordinates": {
      "lon": -78.88722,
      "lat": 34.99132
    }
  },
  {
    "name": "Файзабад",
    "code": "FBD",
    "coordinates": {
      "lon": 70.566666,
      "lat": 37.1
    }
  },
  {
    "name": "Луано",
    "code": "FBM",
    "coordinates": {
      "lon": 27.529167,
      "lat": -11.590833
    }
  },
  {
    "name": "Калиспелл",
    "code": "FCA",
    "coordinates": {
      "lon": -114.25315,
      "lat": 48.307304
    }
  },
  {
    "name": "Флайинг-Клауд",
    "code": "FCM",
    "coordinates": {
      "lon": -93.26667,
      "lat": 44.983334
    }
  },
  {
    "name": "Фьюмичино",
    "code": "FCO",
    "coordinates": {
      "lon": 12.250346,
      "lat": 41.794594
    }
  },
  {
    "name": "Брингеланд",
    "code": "FDE",
    "coordinates": {
      "lon": 5.762073,
      "lat": 61.39178
    }
  },
  {
    "name": "Ламентин",
    "code": "FDF",
    "coordinates": {
      "lon": -60.999947,
      "lat": 14.596061
    }
  },
  {
    "name": "Фридрихсхафен",
    "code": "FDH",
    "coordinates": {
      "lon": 9.523482,
      "lat": 47.672775
    }
  },
  {
    "name": "Фергана",
    "code": "FEG",
    "coordinates": {
      "lon": 71.73361,
      "lat": 40.350277
    }
  },
  {
    "name": "Фернанду-ди-Норонья",
    "code": "FEN",
    "coordinates": {
      "lon": -32.416668,
      "lat": -3.85
    }
  },
  {
    "name": "Фес",
    "code": "FEZ",
    "coordinates": {
      "lon": -4.982138,
      "lat": 33.93079
    }
  },
  {
    "name": "Апиа",
    "code": "FGI",
    "coordinates": {
      "lon": -171.73334,
      "lat": -13.833333
    }
  },
  {
    "name": "Нджили",
    "code": "FIH",
    "coordinates": {
      "lon": 15.447338,
      "lat": -4.389588
    }
  },
  {
    "name": "Зёллинген",
    "code": "FKB",
    "coordinates": {
      "lon": 8.089752,
      "lat": 48.781033
    }
  },
  {
    "name": "Кисангани",
    "code": "FKI",
    "coordinates": {
      "lon": 25.2,
      "lat": 0.516667
    }
  },
  {
    "name": "Франклин",
    "code": "FKL",
    "coordinates": {
      "lon": -79.85972,
      "lat": 41.379166
    }
  },
  {
    "name": "Факфак",
    "code": "FKQ",
    "coordinates": {
      "lon": 132.3,
      "lat": -2.916667
    }
  },
  {
    "name": "Фукусима",
    "code": "FKS",
    "coordinates": {
      "lon": 140.43279,
      "lat": 37.226665
    }
  },
  {
    "name": "Капитолио",
    "code": "FLA",
    "coordinates": {
      "lon": -75.55889,
      "lat": 1.588889
    }
  },
  {
    "name": "Флагстафф-Паллиам",
    "code": "FLG",
    "coordinates": {
      "lon": -111.67167,
      "lat": 35.13778
    }
  },
  {
    "name": "Форт-Лодердейл",
    "code": "FLL",
    "coordinates": {
      "lon": -80.144905,
      "lat": 26.071491
    }
  },
  {
    "name": "Ерсилио Лус",
    "code": "FLN",
    "coordinates": {
      "lon": -48.5452,
      "lat": -27.664446
    }
  },
  {
    "name": "Флоренс",
    "code": "FLO",
    "coordinates": {
      "lon": -79.72444,
      "lat": 34.18889
    }
  },
  {
    "name": "Перетола",
    "code": "FLR",
    "coordinates": {
      "lon": 11.201989,
      "lat": 43.802128
    }
  },
  {
    "name": "Остров Флайндерс",
    "code": "FLS",
    "coordinates": {
      "lon": 147.99667,
      "lat": -40.095
    }
  },
  {
    "name": "Флорес",
    "code": "FLW",
    "coordinates": {
      "lon": -31.15,
      "lat": 39.466667
    }
  },
  {
    "name": "Эль-Паку",
    "code": "FMA",
    "coordinates": {
      "lon": -58.235,
      "lat": -26.212778
    }
  },
  {
    "name": "Калемие",
    "code": "FMI",
    "coordinates": {
      "lon": 29.245277,
      "lat": -5.878333
    }
  },
  {
    "name": "Мемминген",
    "code": "FMM",
    "coordinates": {
      "lon": 10.239444,
      "lat": 47.98861
    }
  },
  {
    "name": "Фармингтон",
    "code": "FMN",
    "coordinates": {
      "lon": -108.229164,
      "lat": 36.74111
    }
  },
  {
    "name": "Мюнстер",
    "code": "FMO",
    "coordinates": {
      "lon": 7.694928,
      "lat": 52.130054
    }
  },
  {
    "name": "Ланджи",
    "code": "FNA",
    "coordinates": {
      "lon": -13.196944,
      "lat": 8.6175
    }
  },
  {
    "name": "Neubrandenburg",
    "code": "FNB",
    "coordinates": {
      "lon": 13.307222,
      "lat": 53.60278
    }
  },
  {
    "name": "Мадейра",
    "code": "FNC",
    "coordinates": {
      "lon": -16.775635,
      "lat": 32.693123
    }
  },
  {
    "name": "Ним",
    "code": "FNI",
    "coordinates": {
      "lon": 4.416667,
      "lat": 43.75
    }
  },
  {
    "name": "Санан",
    "code": "FNJ",
    "coordinates": {
      "lon": 125.666664,
      "lat": 39.2
    }
  },
  {
    "name": "Бишоп",
    "code": "FNT",
    "coordinates": {
      "lon": -83.73891,
      "lat": 42.973812
    }
  },
  {
    "name": "Фучжоу",
    "code": "FOC",
    "coordinates": {
      "lon": 119.66923,
      "lat": 25.93123
    }
  },
  {
    "name": "Форт Додж",
    "code": "FOD",
    "coordinates": {
      "lon": -94.18972,
      "lat": 42.5525
    }
  },
  {
    "name": "Ла Фортуна",
    "code": "FON",
    "coordinates": {
      "lon": -84.48333,
      "lat": 10.4
    }
  },
  {
    "name": "Пинто Мартинс",
    "code": "FOR",
    "coordinates": {
      "lon": -38.540836,
      "lat": -3.779073
    }
  },
  {
    "name": "Гранд-Багама",
    "code": "FPO",
    "coordinates": {
      "lon": -78.7052,
      "lat": 26.547293
    }
  },
  {
    "name": "Франкфурт-на-Майне",
    "code": "FRA",
    "coordinates": {
      "lon": 8.570773,
      "lat": 50.050735
    }
  },
  {
    "name": "Фрайдей-Харбор",
    "code": "FRD",
    "coordinates": {
      "lon": -123.0265,
      "lat": 48.524807
    }
  },
  {
    "name": "Остров Фера",
    "code": "FRE",
    "coordinates": {
      "lon": 159.58333,
      "lat": -8.1
    }
  },
  {
    "name": "Флурё",
    "code": "FRO",
    "coordinates": {
      "lon": 5.024577,
      "lat": 61.58643
    }
  },
  {
    "name": "Флорес",
    "code": "FRS",
    "coordinates": {
      "lon": -89.88333,
      "lat": 16.916668
    }
  },
  {
    "name": "Манас",
    "code": "Fname",
    "coordinates": {
      "lon": 74.46945,
      "lat": 43.05358
    }
  },
  {
    "name": "Франсистаун",
    "code": "FRW",
    "coordinates": {
      "lon": 27.4825,
      "lat": -21.16
    }
  },
  {
    "name": "Сад Корс",
    "code": "FSC",
    "coordinates": {
      "lon": 9.098223,
      "lat": 41.498634
    }
  },
  {
    "name": "Джо-Фосс-Филд",
    "code": "FSD",
    "coordinates": {
      "lon": -96.73115,
      "lat": 43.580296
    }
  },
  {
    "name": "Форт-Смит",
    "code": "FSM",
    "coordinates": {
      "lon": -94.3589,
      "lat": 35.34124
    }
  },
  {
    "name": "Сен-Пьер",
    "code": "FSP",
    "coordinates": {
      "lon": -56.166668,
      "lat": 46.916668
    }
  },
  {
    "name": "Футуна",
    "code": "FTA",
    "coordinates": {
      "lon": 170.25,
      "lat": -19.416668
    }
  },
  {
    "name": "Эль Калафате",
    "code": "FTE",
    "coordinates": {
      "lon": -72.053696,
      "lat": -50.284225
    }
  },
  {
    "name": "Толанаро",
    "code": "FTU",
    "coordinates": {
      "lon": 46.955555,
      "lat": -25.038055
    }
  },
  {
    "name": "Фуэртевентура",
    "code": "FUE",
    "coordinates": {
      "lon": -13.869893,
      "lat": 28.450605
    }
  },